[
  {
    "id": 41846,
    "ident": "PL-0001",
    "type": "small_airport",
    "name": "Poznań-Bednary Airfield",
    "latitude_deg": 52.5344,
    "longitude_deg": 17.2188,
    "elevation_ft": 341,
    "continent": "EU",
    "iso_country": "PL",
    "iso_region": "PL-WP",
    "municipality": "Pobiedziska",
    "scheduled_service": "no",
    "icao_code": "",
    "iata_code": "",
    "gps_code": "EPPB",
    "local_code": "",
    "home_link": "http://www.aeroklub.poznan.pl/artykuly.php?id=43",
    "wikipedia_link": "https://pl.wikipedia.org/wiki/L%C4%85dowisko_Pozna%C5%84-Bednary",
    "keywords": ""
  },
  {
    "id": 41847,
    "ident": "PL-0002",
    "type": "small_airport",
    "name": "Kołobrzeg-Bagicz Airfield",
    "latitude_deg": 54.200077,
    "longitude_deg": 15.683752,
    "elevation_ft": 20,
    "continent": "EU",
    "iso_country": "PL",
    "iso_region": "PL-ZP",
    "municipality": "Bagicz",
    "scheduled_service": "no",
    "icao_code": "",
    "iata_code": "",
    "gps_code": "EPKG",
    "local_code": "",
    "home_link": "",
    "wikipedia_link": "https://pl.wikipedia.org/wiki/L%C4%85dowisko_Ko%C5%82obrzeg-Bagicz",
    "keywords": ""
  },
  {
    "id": 41848,
    "ident": "PL-0003",
    "type": "small_airport",
    "name": "Makowice Airfield",
    "latitude_deg": 53.761082,
    "longitude_deg": 15.290194,
    "elevation_ft": "",
    "continent": "EU",
    "iso_country": "PL",
    "iso_region": "PL-ZP",
    "municipality": "Makowice",
    "scheduled_service": "no",
    "icao_code": "",
    "iata_code": "",
    "gps_code": "",
    "local_code": "",
    "home_link": "",
    "wikipedia_link": "",
    "keywords": "Płoty, Maków"
  },
  {
    "id": 43050,
    "ident": "PL-0004",
    "type": "small_airport",
    "name": "Borsk Airfield",
    "latitude_deg": 53.951046,
    "longitude_deg": 17.948034,
    "elevation_ft": 466,
    "continent": "EU",
    "iso_country": "PL",
    "iso_region": "PL-PM",
    "municipality": "Borsk",
    "scheduled_service": "no",
    "icao_code": "",
    "iata_code": "",
    "gps_code": "EPBO",
    "local_code": "",
    "home_link": "",
    "wikipedia_link": "",
    "keywords": "Borsk Air Base"
  },
  {
    "id": 43051,
    "ident": "PL-0005",
    "type": "closed",
    "name": "Broczyno Air Base",
    "latitude_deg": 53.51944351196289,
    "longitude_deg": 16.28416633605957,
    "elevation_ft": 499,
    "continent": "EU",
    "iso_country": "PL",
    "iso_region": "PL-ZP",
    "municipality": "Czaplinek",
    "scheduled_service": "no",
    "icao_code": "",
    "iata_code": "",
    "gps_code": "",
    "local_code": "",
    "home_link": "",
    "wikipedia_link": "",
    "keywords": ""
  },
  {
    "id": 43052,
    "ident": "PL-0006",
    "type": "closed",
    "name": "Brzeg-Skarbimierz Air Base",
    "latitude_deg": 50.836945,
    "longitude_deg": 17.41361,
    "elevation_ft": 505,
    "continent": "EU",
    "iso_country": "PL",
    "iso_region": "PL-OP",
    "municipality": "Skarbimierz-Osiedle",
    "scheduled_service": "no",
    "icao_code": "",
    "iata_code": "",
    "gps_code": "",
    "local_code": "",
    "home_link": "",
    "wikipedia_link": "",
    "keywords": ""
  },
  {
    "id": 43053,
    "ident": "PL-0007",
    "type": "small_airport",
    "name": "Chojna Airfield",
    "latitude_deg": 52.939445,
    "longitude_deg": 14.421667,
    "elevation_ft": 187,
    "continent": "EU",
    "iso_country": "PL",
    "iso_region": "PL-ZP",
    "municipality": "Chojna",
    "scheduled_service": "no",
    "icao_code": "",
    "iata_code": "",
    "gps_code": "",
    "local_code": "",
    "home_link": "",
    "wikipedia_link": "",
    "keywords": ""
  },
  {
    "id": 43054,
    "ident": "PL-0008",
    "type": "small_airport",
    "name": "Nasielsk-Chrcynno Airfield",
    "latitude_deg": 52.571618,
    "longitude_deg": 20.871649,
    "elevation_ft": 368,
    "continent": "EU",
    "iso_country": "PL",
    "iso_region": "PL-MZ",
    "municipality": "Chrcynno",
    "scheduled_service": "no",
    "icao_code": "",
    "iata_code": "",
    "gps_code": "EPNC",
    "local_code": "",
    "home_link": "",
    "wikipedia_link": "https://pl.wikipedia.org/wiki/L%C4%85dowisko_Chrcynno",
    "keywords": ""
  },
  {
    "id": 43055,
    "ident": "PL-0009",
    "type": "closed",
    "name": "Dęblin-Ułęż Air Base",
    "latitude_deg": 51.619167,
    "longitude_deg": 22.101667,
    "elevation_ft": 558,
    "continent": "EU",
    "iso_country": "PL",
    "iso_region": "PL-LU",
    "municipality": "Dęblin",
    "scheduled_service": "no",
    "icao_code": "",
    "iata_code": "",
    "gps_code": "",
    "local_code": "",
    "home_link": "",
    "wikipedia_link": "",
    "keywords": ""
  },
  {
    "id": 43056,
    "ident": "PL-0010",
    "type": "closed",
    "name": "Debrzno Air Base",
    "latitude_deg": 53.524445,
    "longitude_deg": 17.259167,
    "elevation_ft": 509,
    "continent": "EU",
    "iso_country": "PL",
    "iso_region": "PL-WP",
    "municipality": "Debrzno-Wieś",
    "scheduled_service": "no",
    "icao_code": "",
    "iata_code": "",
    "gps_code": "",
    "local_code": "",
    "home_link": "",
    "wikipedia_link": "",
    "keywords": ""
  },
  {
    "id": 43057,
    "ident": "PL-0011",
    "type": "closed",
    "name": "Gdańsk-Wrzeszcz Air Base",
    "latitude_deg": 54.39611053466797,
    "longitude_deg": 18.602500915527344,
    "elevation_ft": "",
    "continent": "EU",
    "iso_country": "PL",
    "iso_region": "PL-PM",
    "municipality": "Gdańsk",
    "scheduled_service": "no",
    "icao_code": "",
    "iata_code": "",
    "gps_code": "",
    "local_code": "",
    "home_link": "",
    "wikipedia_link": "",
    "keywords": "Danzig-Langfuhr"
  },
  {
    "id": 43058,
    "ident": "PL-0012",
    "type": "closed",
    "name": "Gostyń-Gola Air Base",
    "latitude_deg": 51.88722229003906,
    "longitude_deg": 16.976110458374023,
    "elevation_ft": 354,
    "continent": "EU",
    "iso_country": "PL",
    "iso_region": "PL-WP",
    "municipality": "Gostyń",
    "scheduled_service": "no",
    "icao_code": "",
    "iata_code": "",
    "gps_code": "",
    "local_code": "",
    "home_link": "",
    "wikipedia_link": "",
    "keywords": ""
  },
  {
    "id": 335914,
    "ident": "PL-0013",
    "type": "heliport",
    "name": "Gorzów Wielkopolski Hospital Helipad",
    "latitude_deg": 52.760165,
    "longitude_deg": 15.235376,
    "elevation_ft": "",
    "continent": "EU",
    "iso_country": "PL",
    "iso_region": "PL-LB",
    "municipality": "Gorzów Wielkopolski",
    "scheduled_service": "no",
    "icao_code": "",
    "iata_code": "",
    "gps_code": "",
    "local_code": "",
    "home_link": "",
    "wikipedia_link": "",
    "keywords": ""
  },
  {
    "id": 43132,
    "ident": "PL-0014",
    "type": "small_airport",
    "name": "Brzezie Highway Strip",
    "latitude_deg": 53.814197,
    "longitude_deg": 16.977513,
    "elevation_ft": 499,
    "continent": "EU",
    "iso_country": "PL",
    "iso_region": "PL-ZP",
    "municipality": "Knieja",
    "scheduled_service": "no",
    "icao_code": "",
    "iata_code": "",
    "gps_code": "",
    "local_code": "",
    "home_link": "",
    "wikipedia_link": "",
    "keywords": ""
  },
  {
    "id": 43133,
    "ident": "PL-0015",
    "type": "small_airport",
    "name": "Chociw  (Kanice) Highway Strip",
    "latitude_deg": 51.656912,
    "longitude_deg": 20.273529,
    "elevation_ft": 531,
    "continent": "EU",
    "iso_country": "PL",
    "iso_region": "PL-LD",
    "municipality": "Kanice",
    "scheduled_service": "no",
    "icao_code": "",
    "iata_code": "",
    "gps_code": "",
    "local_code": "",
    "home_link": "",
    "wikipedia_link": "",
    "keywords": ""
  },
  {
    "id": 43134,
    "ident": "PL-0016",
    "type": "small_airport",
    "name": "Debrzno (Słupia) Highway Strip",
    "latitude_deg": 53.570662,
    "longitude_deg": 17.26088,
    "elevation_ft": 525,
    "continent": "EU",
    "iso_country": "PL",
    "iso_region": "PL-PM",
    "municipality": "Słupia",
    "scheduled_service": "no",
    "icao_code": "",
    "iata_code": "",
    "gps_code": "",
    "local_code": "",
    "home_link": "",
    "wikipedia_link": "",
    "keywords": ""
  },
  {
    "id": 43135,
    "ident": "PL-0017",
    "type": "small_airport",
    "name": "Dębnica Kaszubska Highway Strip",
    "latitude_deg": 54.368483,
    "longitude_deg": 17.211674,
    "elevation_ft": 210,
    "continent": "EU",
    "iso_country": "PL",
    "iso_region": "PL-PM",
    "municipality": "Dębnica Kaszubska",
    "scheduled_service": "no",
    "icao_code": "",
    "iata_code": "",
    "gps_code": "",
    "local_code": "",
    "home_link": "",
    "wikipedia_link": "",
    "keywords": ""
  },
  {
    "id": 43136,
    "ident": "PL-0018",
    "type": "small_airport",
    "name": "Gdynia (Rumia) Highway Strip",
    "latitude_deg": 54.604698,
    "longitude_deg": 18.4431,
    "elevation_ft": 36,
    "continent": "EU",
    "iso_country": "PL",
    "iso_region": "PL-PM",
    "municipality": "Kazimierz",
    "scheduled_service": "no",
    "icao_code": "",
    "iata_code": "",
    "gps_code": "",
    "local_code": "",
    "home_link": "",
    "wikipedia_link": "",
    "keywords": ""
  },
  {
    "id": 43137,
    "ident": "PL-0019",
    "type": "small_airport",
    "name": "Granowo Highway Strip",
    "latitude_deg": 52.232200622558594,
    "longitude_deg": 16.596900939941406,
    "elevation_ft": 249,
    "continent": "EU",
    "iso_country": "PL",
    "iso_region": "PL-WP",
    "municipality": "Grodzisk Wielkopolski",
    "scheduled_service": "no",
    "icao_code": "",
    "iata_code": "",
    "gps_code": "",
    "local_code": "",
    "home_link": "",
    "wikipedia_link": "",
    "keywords": ""
  },
  {
    "id": 43138,
    "ident": "PL-0020",
    "type": "small_airport",
    "name": "Jarosławiec Highway Strip",
    "latitude_deg": 54.525002,
    "longitude_deg": 16.506399,
    "elevation_ft": 16,
    "continent": "EU",
    "iso_country": "PL",
    "iso_region": "PL-ZP",
    "municipality": "Jarosławiec",
    "scheduled_service": "no",
    "icao_code": "",
    "iata_code": "",
    "gps_code": "",
    "local_code": "",
    "home_link": "",
    "wikipedia_link": "",
    "keywords": ""
  },
  {
    "id": 43139,
    "ident": "PL-0021",
    "type": "small_airport",
    "name": "Kliniska  (Szczecin) Highway Strip",
    "latitude_deg": 53.427439,
    "longitude_deg": 14.805435,
    "elevation_ft": 49,
    "continent": "EU",
    "iso_country": "PL",
    "iso_region": "PL-ZP",
    "municipality": "Goleniów",
    "scheduled_service": "no",
    "icao_code": "",
    "iata_code": "",
    "gps_code": "",
    "local_code": "",
    "home_link": "",
    "wikipedia_link": "",
    "keywords": ""
  },
  {
    "id": 43140,
    "ident": "PL-0022",
    "type": "small_airport",
    "name": "Koronowo Highway Strip",
    "latitude_deg": 53.3114013671875,
    "longitude_deg": 18.01059913635254,
    "elevation_ft": 305,
    "continent": "EU",
    "iso_country": "PL",
    "iso_region": "PL-KP",
    "municipality": "Koronowo",
    "scheduled_service": "no",
    "icao_code": "",
    "iata_code": "",
    "gps_code": "",
    "local_code": "",
    "home_link": "",
    "wikipedia_link": "",
    "keywords": ""
  },
  {
    "id": 43141,
    "ident": "PL-0023",
    "type": "small_airport",
    "name": "Leszno  (Rydzyna) Highway Strip",
    "latitude_deg": 51.814998626708984,
    "longitude_deg": 16.623899459838867,
    "elevation_ft": 308,
    "continent": "EU",
    "iso_country": "PL",
    "iso_region": "PL-WP",
    "municipality": "Leszno",
    "scheduled_service": "no",
    "icao_code": "",
    "iata_code": "",
    "gps_code": "",
    "local_code": "",
    "home_link": "",
    "wikipedia_link": "",
    "keywords": "Lissa"
  },
  {
    "id": 43142,
    "ident": "PL-0024",
    "type": "small_airport",
    "name": "Łukęcin  (Pobierowo) Highway Strip",
    "latitude_deg": 54.0453,
    "longitude_deg": 14.9053,
    "elevation_ft": 23,
    "continent": "EU",
    "iso_country": "PL",
    "iso_region": "PL-ZP",
    "municipality": "Pobierowo",
    "scheduled_service": "no",
    "icao_code": "",
    "iata_code": "",
    "gps_code": "",
    "local_code": "",
    "home_link": "",
    "wikipedia_link": "",
    "keywords": "Kamień Pomorski"
  },
  {
    "id": 43143,
    "ident": "PL-0025",
    "type": "small_airport",
    "name": "Machliny Highway Strip",
    "latitude_deg": 53.458327,
    "longitude_deg": 16.371672,
    "elevation_ft": 449,
    "continent": "EU",
    "iso_country": "PL",
    "iso_region": "PL-ZP",
    "municipality": "Czaplinek",
    "scheduled_service": "no",
    "icao_code": "",
    "iata_code": "",
    "gps_code": "",
    "local_code": "",
    "home_link": "",
    "wikipedia_link": "",
    "keywords": ""
  },
  {
    "id": 43144,
    "ident": "PL-0026",
    "type": "small_airport",
    "name": "Mieszkowice Highway Strip",
    "latitude_deg": 52.750301361083984,
    "longitude_deg": 14.511699676513672,
    "elevation_ft": 164,
    "continent": "EU",
    "iso_country": "PL",
    "iso_region": "PL-ZP",
    "municipality": "Mieszkowice",
    "scheduled_service": "no",
    "icao_code": "",
    "iata_code": "",
    "gps_code": "",
    "local_code": "",
    "home_link": "",
    "wikipedia_link": "",
    "keywords": ""
  },
  {
    "id": 43145,
    "ident": "PL-0027",
    "type": "small_airport",
    "name": "Mirosławiec  (Nowe Laski) Highway Strip",
    "latitude_deg": 53.38610076904297,
    "longitude_deg": 16.15690040588379,
    "elevation_ft": 495,
    "continent": "EU",
    "iso_country": "PL",
    "iso_region": "PL-ZP",
    "municipality": "Mirosławiec",
    "scheduled_service": "no",
    "icao_code": "",
    "iata_code": "",
    "gps_code": "",
    "local_code": "",
    "home_link": "",
    "wikipedia_link": "",
    "keywords": ""
  },
  {
    "id": 43146,
    "ident": "PL-0028",
    "type": "small_airport",
    "name": "Mostowo Highway Strip",
    "latitude_deg": 54.069199,
    "longitude_deg": 16.537201,
    "elevation_ft": 276,
    "continent": "EU",
    "iso_country": "PL",
    "iso_region": "PL-ZP",
    "municipality": "Polanów",
    "scheduled_service": "no",
    "icao_code": "",
    "iata_code": "",
    "gps_code": "",
    "local_code": "",
    "home_link": "",
    "wikipedia_link": "",
    "keywords": ""
  },
  {
    "id": 43147,
    "ident": "PL-0029",
    "type": "small_airport",
    "name": "Osie  (Lipinki) Highway Strip",
    "latitude_deg": 53.608299255371094,
    "longitude_deg": 18.450599670410156,
    "elevation_ft": 295,
    "continent": "EU",
    "iso_country": "PL",
    "iso_region": "PL-KP",
    "municipality": "Świecie",
    "scheduled_service": "no",
    "icao_code": "",
    "iata_code": "",
    "gps_code": "",
    "local_code": "",
    "home_link": "",
    "wikipedia_link": "",
    "keywords": ""
  },
  {
    "id": 43148,
    "ident": "PL-0030",
    "type": "small_airport",
    "name": "Ostrowy  (Łobodno) Highway Strip",
    "latitude_deg": 50.948299407958984,
    "longitude_deg": 19.013599395751953,
    "elevation_ft": 817,
    "continent": "EU",
    "iso_country": "PL",
    "iso_region": "PL-SL",
    "municipality": "Kłobuck",
    "scheduled_service": "no",
    "icao_code": "",
    "iata_code": "",
    "gps_code": "",
    "local_code": "",
    "home_link": "",
    "wikipedia_link": "",
    "keywords": ""
  },
  {
    "id": 43149,
    "ident": "PL-0031",
    "type": "small_airport",
    "name": "Rossoszyca  (Warta) Highway Strip",
    "latitude_deg": 51.703899,
    "longitude_deg": 18.7183,
    "elevation_ft": 446,
    "continent": "EU",
    "iso_country": "PL",
    "iso_region": "PL-LD",
    "municipality": "Pierzchnia Góra",
    "scheduled_service": "no",
    "icao_code": "",
    "iata_code": "",
    "gps_code": "",
    "local_code": "",
    "home_link": "",
    "wikipedia_link": "",
    "keywords": ""
  },
  {
    "id": 43150,
    "ident": "PL-0032",
    "type": "small_airport",
    "name": "Środa Śląska  (Komorniki) Highway Strip",
    "latitude_deg": 51.16279983520508,
    "longitude_deg": 16.66860008239746,
    "elevation_ft": 449,
    "continent": "EU",
    "iso_country": "PL",
    "iso_region": "PL-DS",
    "municipality": "Środa Śląska",
    "scheduled_service": "no",
    "icao_code": "",
    "iata_code": "",
    "gps_code": "",
    "local_code": "",
    "home_link": "",
    "wikipedia_link": "",
    "keywords": ""
  },
  {
    "id": 43151,
    "ident": "PL-0033",
    "type": "small_airport",
    "name": "Wielbark Highway Strip",
    "latitude_deg": 53.36669921875,
    "longitude_deg": 20.791900634765625,
    "elevation_ft": 436,
    "continent": "EU",
    "iso_country": "PL",
    "iso_region": "PL-WN",
    "municipality": "Wielbark",
    "scheduled_service": "no",
    "icao_code": "",
    "iata_code": "",
    "gps_code": "",
    "local_code": "",
    "home_link": "",
    "wikipedia_link": "",
    "keywords": ""
  },
  {
    "id": 43152,
    "ident": "PL-0034",
    "type": "small_airport",
    "name": "Września Highway Strip",
    "latitude_deg": 52.30110168457031,
    "longitude_deg": 17.622499465942383,
    "elevation_ft": 361,
    "continent": "EU",
    "iso_country": "PL",
    "iso_region": "PL-WP",
    "municipality": "Września",
    "scheduled_service": "no",
    "icao_code": "",
    "iata_code": "",
    "gps_code": "",
    "local_code": "",
    "home_link": "",
    "wikipedia_link": "",
    "keywords": ""
  },
  {
    "id": 43153,
    "ident": "PL-0035",
    "type": "closed",
    "name": "Aleksandrów Łódzki Airport",
    "latitude_deg": 51.7906,
    "longitude_deg": 19.27,
    "elevation_ft": 623,
    "continent": "EU",
    "iso_country": "PL",
    "iso_region": "PL-LD",
    "municipality": "Aleksandrów Łódzki",
    "scheduled_service": "no",
    "icao_code": "",
    "iata_code": "",
    "gps_code": "",
    "local_code": "",
    "home_link": "",
    "wikipedia_link": "",
    "keywords": ""
  },
  {
    "id": 43154,
    "ident": "PL-0036",
    "type": "small_airport",
    "name": "Lotnisko Białousy",
    "latitude_deg": 53.40472,
    "longitude_deg": 23.228331,
    "elevation_ft": 587,
    "continent": "EU",
    "iso_country": "PL",
    "iso_region": "PL-PD",
    "municipality": "Sokółka",
    "scheduled_service": "no",
    "icao_code": "",
    "iata_code": "",
    "gps_code": "",
    "local_code": "",
    "home_link": "",
    "wikipedia_link": "",
    "keywords": ""
  },
  {
    "id": 43155,
    "ident": "PL-0037",
    "type": "small_airport",
    "name": "Bezmiechowa Airfield",
    "latitude_deg": 49.518996,
    "longitude_deg": 22.409148,
    "elevation_ft": 2014,
    "continent": "EU",
    "iso_country": "PL",
    "iso_region": "PL-PK",
    "municipality": "Bezmiechowa Górna",
    "scheduled_service": "no",
    "icao_code": "",
    "iata_code": "",
    "gps_code": "",
    "local_code": "",
    "home_link": "",
    "wikipedia_link": "",
    "keywords": ""
  },
  {
    "id": 43156,
    "ident": "PL-0038",
    "type": "closed",
    "name": "Brochocin Air Base",
    "latitude_deg": 51.203331,
    "longitude_deg": 15.93278,
    "elevation_ft": 663,
    "continent": "EU",
    "iso_country": "PL",
    "iso_region": "PL-DS",
    "municipality": "Złotoryja",
    "scheduled_service": "no",
    "icao_code": "",
    "iata_code": "",
    "gps_code": "",
    "local_code": "",
    "home_link": "",
    "wikipedia_link": "",
    "keywords": ""
  },
  {
    "id": 43157,
    "ident": "PL-0039",
    "type": "small_airport",
    "name": "Sieradz Airfield",
    "latitude_deg": 51.535556,
    "longitude_deg": 18.801389,
    "elevation_ft": 459,
    "continent": "EU",
    "iso_country": "PL",
    "iso_region": "PL-LD",
    "municipality": "Sieradz",
    "scheduled_service": "no",
    "icao_code": "",
    "iata_code": "",
    "gps_code": "EPSI",
    "local_code": "",
    "home_link": "",
    "wikipedia_link": "",
    "keywords": "Sieradz-Chojne"
  },
  {
    "id": 315659,
    "ident": "PL-0040",
    "type": "small_airport",
    "name": "Lotnisko Sportowe Gubin",
    "latitude_deg": 51.99179,
    "longitude_deg": 14.7319853,
    "elevation_ft": "",
    "continent": "EU",
    "iso_country": "PL",
    "iso_region": "PL-LB",
    "municipality": "",
    "scheduled_service": "no",
    "icao_code": "",
    "iata_code": "",
    "gps_code": "",
    "local_code": "",
    "home_link": "",
    "wikipedia_link": "",
    "keywords": ""
  },
  {
    "id": 43159,
    "ident": "PL-0041",
    "type": "closed",
    "name": "Dębica Air Base",
    "latitude_deg": 53.943611,
    "longitude_deg": 15.62028,
    "elevation_ft": 161,
    "continent": "EU",
    "iso_country": "PL",
    "iso_region": "PL-ZP",
    "municipality": "Mirowo",
    "scheduled_service": "no",
    "icao_code": "",
    "iata_code": "",
    "gps_code": "",
    "local_code": "",
    "home_link": "",
    "wikipedia_link": "",
    "keywords": ""
  },
  {
    "id": 43160,
    "ident": "PL-0042",
    "type": "closed",
    "name": "Dęblin-Podlodów Air Base",
    "latitude_deg": 51.62722,
    "longitude_deg": 22.198059,
    "elevation_ft": 522,
    "continent": "EU",
    "iso_country": "PL",
    "iso_region": "PL-LU",
    "municipality": "Dęblin",
    "scheduled_service": "no",
    "icao_code": "",
    "iata_code": "",
    "gps_code": "",
    "local_code": "",
    "home_link": "",
    "wikipedia_link": "",
    "keywords": ""
  },
  {
    "id": 43161,
    "ident": "PL-0043",
    "type": "closed",
    "name": "Dębno Polskie Airfield",
    "latitude_deg": 51.59444,
    "longitude_deg": 16.8675,
    "elevation_ft": 305,
    "continent": "EU",
    "iso_country": "PL",
    "iso_region": "PL-WP",
    "municipality": "Rawicz",
    "scheduled_service": "no",
    "icao_code": "",
    "iata_code": "",
    "gps_code": "",
    "local_code": "",
    "home_link": "",
    "wikipedia_link": "",
    "keywords": ""
  },
  {
    "id": 43163,
    "ident": "PL-0044",
    "type": "closed",
    "name": "Goszczanów Airfield",
    "latitude_deg": 51.799687,
    "longitude_deg": 18.491781,
    "elevation_ft": 446,
    "continent": "EU",
    "iso_country": "PL",
    "iso_region": "PL-LD",
    "municipality": "Goszczanów",
    "scheduled_service": "no",
    "icao_code": "",
    "iata_code": "",
    "gps_code": "",
    "local_code": "",
    "home_link": "",
    "wikipedia_link": "",
    "keywords": ""
  },
  {
    "id": 43165,
    "ident": "PL-0045",
    "type": "closed",
    "name": "Jaworze Airfield",
    "latitude_deg": 53.31139,
    "longitude_deg": 15.71389,
    "elevation_ft": 344,
    "continent": "EU",
    "iso_country": "PL",
    "iso_region": "PL-ZP",
    "municipality": "Recz",
    "scheduled_service": "no",
    "icao_code": "",
    "iata_code": "",
    "gps_code": "",
    "local_code": "",
    "home_link": "",
    "wikipedia_link": "",
    "keywords": ""
  },
  {
    "id": 43167,
    "ident": "PL-0046",
    "type": "heliport",
    "name": "Kraków-Łęg Heliport",
    "latitude_deg": 50.06071,
    "longitude_deg": 20.012423,
    "elevation_ft": 636,
    "continent": "EU",
    "iso_country": "PL",
    "iso_region": "PL-MA",
    "municipality": "Kraków",
    "scheduled_service": "no",
    "icao_code": "",
    "iata_code": "",
    "gps_code": "",
    "local_code": "",
    "home_link": "",
    "wikipedia_link": "",
    "keywords": ""
  },
  {
    "id": 43168,
    "ident": "PL-0047",
    "type": "closed",
    "name": "Kroczewo Airstrip",
    "latitude_deg": 52.47361,
    "longitude_deg": 20.539169,
    "elevation_ft": 335,
    "continent": "EU",
    "iso_country": "PL",
    "iso_region": "PL-MZ",
    "municipality": "Zakroczym",
    "scheduled_service": "no",
    "icao_code": "",
    "iata_code": "",
    "gps_code": "",
    "local_code": "",
    "home_link": "",
    "wikipedia_link": "",
    "keywords": ""
  },
  {
    "id": 43169,
    "ident": "PL-0048",
    "type": "closed",
    "name": "Krzewica Airport",
    "latitude_deg": 52.05389,
    "longitude_deg": 22.70056,
    "elevation_ft": 509,
    "continent": "EU",
    "iso_country": "PL",
    "iso_region": "PL-LU",
    "municipality": "Międzyrzec Podlaski",
    "scheduled_service": "no",
    "icao_code": "",
    "iata_code": "",
    "gps_code": "",
    "local_code": "",
    "home_link": "",
    "wikipedia_link": "",
    "keywords": ""
  },
  {
    "id": 43170,
    "ident": "PL-0049",
    "type": "small_airport",
    "name": "Łagowo Airstrip",
    "latitude_deg": 51.966667,
    "longitude_deg": 16.983334,
    "elevation_ft": 295,
    "continent": "EU",
    "iso_country": "PL",
    "iso_region": "PL-WP",
    "municipality": "Dolsk",
    "scheduled_service": "no",
    "icao_code": "",
    "iata_code": "",
    "gps_code": "",
    "local_code": "",
    "home_link": "",
    "wikipedia_link": "",
    "keywords": ""
  },
  {
    "id": 43172,
    "ident": "PL-0050",
    "type": "closed",
    "name": "Międzylesie Airport",
    "latitude_deg": 52.216942,
    "longitude_deg": 21.198891,
    "elevation_ft": 322,
    "continent": "EU",
    "iso_country": "PL",
    "iso_region": "PL-MZ",
    "municipality": "Warsaw",
    "scheduled_service": "no",
    "icao_code": "",
    "iata_code": "",
    "gps_code": "",
    "local_code": "",
    "home_link": "",
    "wikipedia_link": "",
    "keywords": ""
  },
  {
    "id": 43174,
    "ident": "PL-0051",
    "type": "closed",
    "name": "Nadarzyce Poligon Fake Airport",
    "latitude_deg": 53.470001,
    "longitude_deg": 16.456671,
    "elevation_ft": 413,
    "continent": "EU",
    "iso_country": "PL",
    "iso_region": "PL-WP",
    "municipality": "Wałcz",
    "scheduled_service": "no",
    "icao_code": "",
    "iata_code": "",
    "gps_code": "",
    "local_code": "",
    "home_link": "",
    "wikipedia_link": "",
    "keywords": ""
  },
  {
    "id": 43175,
    "ident": "PL-0052",
    "type": "closed",
    "name": "Namysłów Airport",
    "latitude_deg": 51.064171,
    "longitude_deg": 17.593611,
    "elevation_ft": 492,
    "continent": "EU",
    "iso_country": "PL",
    "iso_region": "PL-OP",
    "municipality": "Namysłów",
    "scheduled_service": "no",
    "icao_code": "",
    "iata_code": "",
    "gps_code": "",
    "local_code": "",
    "home_link": "",
    "wikipedia_link": "",
    "keywords": ""
  },
  {
    "id": 43176,
    "ident": "PL-0053",
    "type": "closed",
    "name": "Oława-Stanowice Air Base (closed)",
    "latitude_deg": 50.978611,
    "longitude_deg": 17.247499,
    "elevation_ft": 420,
    "continent": "EU",
    "iso_country": "PL",
    "iso_region": "PL-DS",
    "municipality": "Oława",
    "scheduled_service": "no",
    "icao_code": "",
    "iata_code": "",
    "gps_code": "",
    "local_code": "",
    "home_link": "",
    "wikipedia_link": "https://en.wikipedia.org/wiki/O%C5%82awa-Stanowice_Airport",
    "keywords": "Oława-Marcinkowice"
  },
  {
    "id": 43177,
    "ident": "PL-0054",
    "type": "closed",
    "name": "Orsk Airstrip",
    "latitude_deg": 51.5672,
    "longitude_deg": 16.3556,
    "elevation_ft": 404,
    "continent": "EU",
    "iso_country": "PL",
    "iso_region": "PL-DS",
    "municipality": "Szlichtyngowa",
    "scheduled_service": "no",
    "icao_code": "",
    "iata_code": "",
    "gps_code": "",
    "local_code": "",
    "home_link": "",
    "wikipedia_link": "",
    "keywords": ""
  },
  {
    "id": 43178,
    "ident": "PL-0055",
    "type": "small_airport",
    "name": "Przasnysz-Sierakowo Airfield",
    "latitude_deg": 53.00835,
    "longitude_deg": 20.93157,
    "elevation_ft": 394,
    "continent": "EU",
    "iso_country": "PL",
    "iso_region": "PL-MZ",
    "municipality": "Przasnysz",
    "scheduled_service": "no",
    "icao_code": "",
    "iata_code": "",
    "gps_code": "EPPZ",
    "local_code": "",
    "home_link": "",
    "wikipedia_link": "https://pl.wikipedia.org/wiki/L%C4%85dowisko_Przasnysz-Sierakowo",
    "keywords": ""
  },
  {
    "id": 43179,
    "ident": "PL-0056",
    "type": "closed",
    "name": "Radzewice Airport",
    "latitude_deg": 52.211109,
    "longitude_deg": 16.997219,
    "elevation_ft": 249,
    "continent": "EU",
    "iso_country": "PL",
    "iso_region": "PL-WP",
    "municipality": "Mosina",
    "scheduled_service": "no",
    "icao_code": "",
    "iata_code": "",
    "gps_code": "",
    "local_code": "",
    "home_link": "",
    "wikipedia_link": "",
    "keywords": ""
  },
  {
    "id": 43180,
    "ident": "PL-0057",
    "type": "small_airport",
    "name": "Radzyń Podlaski-Marynin Airstrip",
    "latitude_deg": 51.754169,
    "longitude_deg": 22.628611,
    "elevation_ft": 470,
    "continent": "EU",
    "iso_country": "PL",
    "iso_region": "PL-LU",
    "municipality": "Radzyń Podlaski",
    "scheduled_service": "no",
    "icao_code": "",
    "iata_code": "",
    "gps_code": "",
    "local_code": "",
    "home_link": "",
    "wikipedia_link": "",
    "keywords": ""
  },
  {
    "id": 43181,
    "ident": "PL-0058",
    "type": "small_airport",
    "name": "Rostki Airstrip",
    "latitude_deg": 53.709721,
    "longitude_deg": 21.909719,
    "elevation_ft": 387,
    "continent": "EU",
    "iso_country": "PL",
    "iso_region": "PL-WN",
    "municipality": "Orzysz",
    "scheduled_service": "no",
    "icao_code": "",
    "iata_code": "",
    "gps_code": "",
    "local_code": "",
    "home_link": "",
    "wikipedia_link": "",
    "keywords": ""
  },
  {
    "id": 43182,
    "ident": "PL-0059",
    "type": "closed",
    "name": "Skibno Airfield",
    "latitude_deg": 54.246478,
    "longitude_deg": 16.307912,
    "elevation_ft": 89,
    "continent": "EU",
    "iso_country": "PL",
    "iso_region": "PL-ZP",
    "municipality": "Skibno",
    "scheduled_service": "no",
    "icao_code": "",
    "iata_code": "",
    "gps_code": "",
    "local_code": "",
    "home_link": "",
    "wikipedia_link": "",
    "keywords": ""
  },
  {
    "id": 350484,
    "ident": "PL-0060",
    "type": "small_airport",
    "name": "Szadek Airstrip",
    "latitude_deg": 51.700792,
    "longitude_deg": 18.999452,
    "elevation_ft": 545,
    "continent": "EU",
    "iso_country": "PL",
    "iso_region": "PL-LD",
    "municipality": "Szadek",
    "scheduled_service": "no",
    "icao_code": "",
    "iata_code": "",
    "gps_code": "",
    "local_code": "",
    "home_link": "",
    "wikipedia_link": "",
    "keywords": ""
  },
  {
    "id": 43184,
    "ident": "PL-0061",
    "type": "small_airport",
    "name": "Drahimek Airfield",
    "latitude_deg": 53.614404,
    "longitude_deg": 16.185951,
    "elevation_ft": 476,
    "continent": "EU",
    "iso_country": "PL",
    "iso_region": "PL-ZP",
    "municipality": "Czaplinek",
    "scheduled_service": "no",
    "icao_code": "",
    "iata_code": "",
    "gps_code": "",
    "local_code": "",
    "home_link": "",
    "wikipedia_link": "",
    "keywords": ""
  },
  {
    "id": 43185,
    "ident": "PL-0062",
    "type": "small_airport",
    "name": "Watorowo Airfield",
    "latitude_deg": 53.298517,
    "longitude_deg": 18.414073,
    "elevation_ft": 299,
    "continent": "EU",
    "iso_country": "PL",
    "iso_region": "PL-KP",
    "municipality": "Watorowo",
    "scheduled_service": "no",
    "icao_code": "",
    "iata_code": "",
    "gps_code": "EPWT",
    "local_code": "",
    "home_link": "",
    "wikipedia_link": "",
    "keywords": ""
  },
  {
    "id": 43186,
    "ident": "PL-0063",
    "type": "closed",
    "name": "Wejherowo Airfield",
    "latitude_deg": 54.59111,
    "longitude_deg": 18.200001,
    "elevation_ft": 272,
    "continent": "EU",
    "iso_country": "PL",
    "iso_region": "PL-PM",
    "municipality": "Gowino",
    "scheduled_service": "no",
    "icao_code": "",
    "iata_code": "",
    "gps_code": "",
    "local_code": "",
    "home_link": "",
    "wikipedia_link": "",
    "keywords": ""
  },
  {
    "id": 43187,
    "ident": "PL-0064",
    "type": "small_airport",
    "name": "Weremień Airfield",
    "latitude_deg": 49.446505,
    "longitude_deg": 22.319455,
    "elevation_ft": 1335,
    "continent": "EU",
    "iso_country": "PL",
    "iso_region": "PL-PK",
    "municipality": "Weremień",
    "scheduled_service": "no",
    "icao_code": "",
    "iata_code": "",
    "gps_code": "",
    "local_code": "",
    "home_link": "",
    "wikipedia_link": "",
    "keywords": ""
  },
  {
    "id": 43188,
    "ident": "PL-0065",
    "type": "closed",
    "name": "Wschowa-Łysiny Airport",
    "latitude_deg": 51.835247,
    "longitude_deg": 16.242771,
    "elevation_ft": 361,
    "continent": "EU",
    "iso_country": "PL",
    "iso_region": "PL-LB",
    "municipality": "Wschowa",
    "scheduled_service": "no",
    "icao_code": "",
    "iata_code": "",
    "gps_code": "",
    "local_code": "",
    "home_link": "",
    "wikipedia_link": "",
    "keywords": ""
  },
  {
    "id": 43189,
    "ident": "PL-0066",
    "type": "closed",
    "name": "Wysokie Mazowieckie Air Base",
    "latitude_deg": 52.931389,
    "longitude_deg": 22.52639,
    "elevation_ft": 482,
    "continent": "EU",
    "iso_country": "PL",
    "iso_region": "PL-PD",
    "municipality": "Wysokie Mazowieckie",
    "scheduled_service": "no",
    "icao_code": "",
    "iata_code": "",
    "gps_code": "",
    "local_code": "",
    "home_link": "",
    "wikipedia_link": "",
    "keywords": ""
  },
  {
    "id": 43190,
    "ident": "PL-0067",
    "type": "closed",
    "name": "Zgorzelec-Żarska Wieś Airport",
    "latitude_deg": 51.203335,
    "longitude_deg": 15.128333,
    "elevation_ft": 735,
    "continent": "EU",
    "iso_country": "PL",
    "iso_region": "PL-DS",
    "municipality": "Zgorzelec",
    "scheduled_service": "no",
    "icao_code": "",
    "iata_code": "",
    "gps_code": "",
    "local_code": "",
    "home_link": "",
    "wikipedia_link": "",
    "keywords": ""
  },
  {
    "id": 44704,
    "ident": "PL-0068",
    "type": "closed",
    "name": "Krzywa Air Base",
    "latitude_deg": 51.310001373291016,
    "longitude_deg": 15.725000381469727,
    "elevation_ft": "",
    "continent": "EU",
    "iso_country": "PL",
    "iso_region": "PL-DS",
    "municipality": "Różyniec",
    "scheduled_service": "no",
    "icao_code": "",
    "iata_code": "",
    "gps_code": "",
    "local_code": "",
    "home_link": "",
    "wikipedia_link": "http://pl.wikipedia.org/wiki/Lotnisko_Krzywa",
    "keywords": ""
  },
  {
    "id": 44705,
    "ident": "PL-0069",
    "type": "small_airport",
    "name": "Gozdnica Airfield",
    "latitude_deg": 51.459999084472656,
    "longitude_deg": 15.104999542236328,
    "elevation_ft": "",
    "continent": "EU",
    "iso_country": "PL",
    "iso_region": "PL-LB",
    "municipality": "Gozdnica",
    "scheduled_service": "no",
    "icao_code": "",
    "iata_code": "",
    "gps_code": "",
    "local_code": "",
    "home_link": "",
    "wikipedia_link": "",
    "keywords": ""
  },
  {
    "id": 44706,
    "ident": "PL-0070",
    "type": "small_airport",
    "name": "Świebodzice Airfield",
    "latitude_deg": 50.882999,
    "longitude_deg": 16.32,
    "elevation_ft": 876,
    "continent": "EU",
    "iso_country": "PL",
    "iso_region": "PL-DS",
    "municipality": "Świebodzice",
    "scheduled_service": "no",
    "icao_code": "",
    "iata_code": "",
    "gps_code": "EPWC",
    "local_code": "",
    "home_link": "",
    "wikipedia_link": "",
    "keywords": "Lotnisko Świebodzice"
  },
  {
    "id": 44707,
    "ident": "PL-0071",
    "type": "closed",
    "name": "Szprotawa-Wiechlice Air Base",
    "latitude_deg": 51.561278,
    "longitude_deg": 15.588913,
    "elevation_ft": "",
    "continent": "EU",
    "iso_country": "PL",
    "iso_region": "PL-LB",
    "municipality": "Wiechlice",
    "scheduled_service": "no",
    "icao_code": "",
    "iata_code": "",
    "gps_code": "",
    "local_code": "",
    "home_link": "",
    "wikipedia_link": "",
    "keywords": "Lotnisko Szprotawa, Lotnisko Wiechlice, Аэродром Шпротава, Аэродром Вихлице"
  },
  {
    "id": 44708,
    "ident": "PL-0072",
    "type": "small_airport",
    "name": "Bystrzyca Klodzka Airfield",
    "latitude_deg": 50.308715,
    "longitude_deg": 16.645908,
    "elevation_ft": 1291,
    "continent": "EU",
    "iso_country": "PL",
    "iso_region": "PL-DS",
    "municipality": "Bystrzyca Kłodzka",
    "scheduled_service": "no",
    "icao_code": "",
    "iata_code": "",
    "gps_code": "",
    "local_code": "",
    "home_link": "",
    "wikipedia_link": "",
    "keywords": "Lotnisko Bystrzyca Kłodzka"
  },
  {
    "id": 44709,
    "ident": "PL-0073",
    "type": "closed",
    "name": "Olesnica Air Base",
    "latitude_deg": 51.21500015258789,
    "longitude_deg": 17.434999465942383,
    "elevation_ft": "",
    "continent": "EU",
    "iso_country": "PL",
    "iso_region": "PL-DS",
    "municipality": "Oleśnica",
    "scheduled_service": "no",
    "icao_code": "",
    "iata_code": "",
    "gps_code": "",
    "local_code": "",
    "home_link": "",
    "wikipedia_link": "",
    "keywords": "Lotnisko Oleśnica"
  },
  {
    "id": 44710,
    "ident": "PL-0074",
    "type": "small_airport",
    "name": "Kakolewo (former military)",
    "latitude_deg": 52.235001,
    "longitude_deg": 16.243,
    "elevation_ft": 331,
    "continent": "EU",
    "iso_country": "PL",
    "iso_region": "PL-WP",
    "municipality": "Kąkolewo",
    "scheduled_service": "no",
    "icao_code": "EPPG",
    "iata_code": "",
    "gps_code": "EPPG",
    "local_code": "",
    "home_link": "https://www.lotniskokakolewo.pl/en/aviation/for-pilots/",
    "wikipedia_link": "",
    "keywords": "Lotnisko Kąkolewo"
  },
  {
    "id": 44711,
    "ident": "PL-0075",
    "type": "small_airport",
    "name": "Przytoczna Airfield",
    "latitude_deg": 52.52399826049805,
    "longitude_deg": 15.725000381469727,
    "elevation_ft": "",
    "continent": "EU",
    "iso_country": "PL",
    "iso_region": "PL-LB",
    "municipality": "Przytoczna",
    "scheduled_service": "no",
    "icao_code": "",
    "iata_code": "",
    "gps_code": "",
    "local_code": "",
    "home_link": "",
    "wikipedia_link": "",
    "keywords": "Lotnisko Przytoczna"
  },
  {
    "id": 44712,
    "ident": "PL-0076",
    "type": "small_airport",
    "name": "Żerniki Gądki Airfield",
    "latitude_deg": 52.322536,
    "longitude_deg": 17.040853,
    "elevation_ft": 260,
    "continent": "EU",
    "iso_country": "PL",
    "iso_region": "PL-WP",
    "municipality": "Żerniki",
    "scheduled_service": "no",
    "icao_code": "",
    "iata_code": "",
    "gps_code": "EPZE",
    "local_code": "",
    "home_link": "http://www.airport-biernat.pl/",
    "wikipedia_link": "https://pl.wikipedia.org/wiki/L%C4%85dowisko_%C5%BBerniki",
    "keywords": "Biernat, Lotnisko Żerniki, Gądki, Zerniki, Gadki"
  },
  {
    "id": 44737,
    "ident": "PL-0077",
    "type": "small_airport",
    "name": "Konstancin-Jeziorna Airfield",
    "latitude_deg": 52.07500076293945,
    "longitude_deg": 21.187000274658203,
    "elevation_ft": "",
    "continent": "EU",
    "iso_country": "PL",
    "iso_region": "PL-MZ",
    "municipality": "Konstancin-Jeziorna",
    "scheduled_service": "no",
    "icao_code": "",
    "iata_code": "",
    "gps_code": "",
    "local_code": "",
    "home_link": "http://www.jbi.com.pl/",
    "wikipedia_link": "",
    "keywords": "Obory Airfield"
  },
  {
    "id": 315920,
    "ident": "PL-0078",
    "type": "small_airport",
    "name": "Lipki Wielkie Airfield",
    "latitude_deg": 52.715915,
    "longitude_deg": 15.51115,
    "elevation_ft": "",
    "continent": "EU",
    "iso_country": "PL",
    "iso_region": "PL-LB",
    "municipality": "Lipki Wielkie",
    "scheduled_service": "no",
    "icao_code": "",
    "iata_code": "",
    "gps_code": "",
    "local_code": "",
    "home_link": "",
    "wikipedia_link": "",
    "keywords": ""
  },
  {
    "id": 315921,
    "ident": "PL-0079",
    "type": "closed",
    "name": "Lotnisko Turośń Kościelna",
    "latitude_deg": 53.003022,
    "longitude_deg": 23.057806,
    "elevation_ft": "",
    "continent": "EU",
    "iso_country": "PL",
    "iso_region": "PL-PD",
    "municipality": "",
    "scheduled_service": "no",
    "icao_code": "",
    "iata_code": "",
    "gps_code": "",
    "local_code": "",
    "home_link": "",
    "wikipedia_link": "https://pl.wikipedia.org/wiki/L%C4%85dowisko_Turo%C5%9B%C5%84_Ko%C5%9Bcielna",
    "keywords": ""
  },
  {
    "id": 315924,
    "ident": "PL-0080",
    "type": "small_airport",
    "name": "Szczecinek-Wilcze Laski Airfield",
    "latitude_deg": 53.594457,
    "longitude_deg": 16.724189,
    "elevation_ft": "",
    "continent": "EU",
    "iso_country": "PL",
    "iso_region": "PL-ZP",
    "municipality": "Wilcze Laski",
    "scheduled_service": "no",
    "icao_code": "",
    "iata_code": "",
    "gps_code": "",
    "local_code": "",
    "home_link": "",
    "wikipedia_link": "",
    "keywords": ""
  },
  {
    "id": 331412,
    "ident": "PL-0081",
    "type": "small_airport",
    "name": "Działyń Airstrip",
    "latitude_deg": 52.603819,
    "longitude_deg": 17.477329,
    "elevation_ft": "",
    "continent": "EU",
    "iso_country": "PL",
    "iso_region": "PL-WP",
    "municipality": "Działyń",
    "scheduled_service": "no",
    "icao_code": "",
    "iata_code": "",
    "gps_code": "",
    "local_code": "",
    "home_link": "http://dzialpol.pl/ladowisko.html",
    "wikipedia_link": "",
    "keywords": "Brzozogaj"
  },
  {
    "id": 316044,
    "ident": "PL-0082",
    "type": "closed",
    "name": "Wicko Morskie Air Base",
    "latitude_deg": 54.552223,
    "longitude_deg": 16.617742,
    "elevation_ft": 3,
    "continent": "EU",
    "iso_country": "PL",
    "iso_region": "PL-ZP",
    "municipality": "Wicko Morskie",
    "scheduled_service": "no",
    "icao_code": "",
    "iata_code": "",
    "gps_code": "",
    "local_code": "",
    "home_link": "",
    "wikipedia_link": "",
    "keywords": ""
  },
  {
    "id": 316345,
    "ident": "PL-0083",
    "type": "small_airport",
    "name": "Kazimierza Mała Airfield",
    "latitude_deg": 50.260283,
    "longitude_deg": 20.541402,
    "elevation_ft": 615,
    "continent": "EU",
    "iso_country": "PL",
    "iso_region": "PL-SK",
    "municipality": "Kazimierza Mała",
    "scheduled_service": "no",
    "icao_code": "",
    "iata_code": "",
    "gps_code": "",
    "local_code": "",
    "home_link": "",
    "wikipedia_link": "",
    "keywords": ""
  },
  {
    "id": 319899,
    "ident": "PL-0084",
    "type": "heliport",
    "name": "Sanok Heliport",
    "latitude_deg": 49.575593,
    "longitude_deg": 22.20239,
    "elevation_ft": 919,
    "continent": "EU",
    "iso_country": "PL",
    "iso_region": "PL-PK",
    "municipality": "",
    "scheduled_service": "no",
    "icao_code": "",
    "iata_code": "",
    "gps_code": "EPSA",
    "local_code": "",
    "home_link": "",
    "wikipedia_link": "https://pl.wikipedia.org/wiki/L%C4%85dowisko_Sanok-Baza",
    "keywords": "Sanok Helicopter Emergency Medical Service"
  },
  {
    "id": 319900,
    "ident": "PL-0085",
    "type": "small_airport",
    "name": "Stara Wieś Field",
    "latitude_deg": 49.722995,
    "longitude_deg": 22.025378,
    "elevation_ft": 1000,
    "continent": "EU",
    "iso_country": "PL",
    "iso_region": "PL-PK",
    "municipality": "Stara Wieś",
    "scheduled_service": "no",
    "icao_code": "",
    "iata_code": "",
    "gps_code": "EPBW",
    "local_code": "",
    "home_link": "https://www.facebook.com/LotniskoStaraWies",
    "wikipedia_link": "https://pl.wikipedia.org/wiki/L%C4%85dowisko_Stara_Wie%C5%9B",
    "keywords": "Lądowisko Stara Wieś"
  },
  {
    "id": 320206,
    "ident": "PL-0086",
    "type": "closed",
    "name": "Lwówek Airport",
    "latitude_deg": 51.128283,
    "longitude_deg": 15.570464,
    "elevation_ft": "",
    "continent": "EU",
    "iso_country": "PL",
    "iso_region": "PL-DS",
    "municipality": "Lwówek",
    "scheduled_service": "no",
    "icao_code": "",
    "iata_code": "",
    "gps_code": "",
    "local_code": "",
    "home_link": "",
    "wikipedia_link": "",
    "keywords": ""
  },
  {
    "id": 320385,
    "ident": "PL-0087",
    "type": "small_airport",
    "name": "Zator",
    "latitude_deg": 49.959944,
    "longitude_deg": 19.402833,
    "elevation_ft": "",
    "continent": "EU",
    "iso_country": "PL",
    "iso_region": "PL-MA",
    "municipality": "",
    "scheduled_service": "no",
    "icao_code": "",
    "iata_code": "",
    "gps_code": "",
    "local_code": "",
    "home_link": "",
    "wikipedia_link": "",
    "keywords": ""
  },
  {
    "id": 320386,
    "ident": "PL-0088",
    "type": "small_airport",
    "name": "Baranów Airfield",
    "latitude_deg": 52.122083,
    "longitude_deg": 20.48175,
    "elevation_ft": 295,
    "continent": "EU",
    "iso_country": "PL",
    "iso_region": "PL-MZ",
    "municipality": "Baranów",
    "scheduled_service": "no",
    "icao_code": "",
    "iata_code": "",
    "gps_code": "",
    "local_code": "",
    "home_link": "",
    "wikipedia_link": "",
    "keywords": ""
  },
  {
    "id": 320569,
    "ident": "PL-0089",
    "type": "small_airport",
    "name": "Korne Airfield",
    "latitude_deg": 54.129767,
    "longitude_deg": 17.845354,
    "elevation_ft": 515,
    "continent": "EU",
    "iso_country": "PL",
    "iso_region": "PL-PM",
    "municipality": "Korne",
    "scheduled_service": "no",
    "icao_code": "",
    "iata_code": "",
    "gps_code": "EPKO",
    "local_code": "",
    "home_link": "http://www.lotniskokorne.gka.pl",
    "wikipedia_link": "",
    "keywords": ""
  },
  {
    "id": 320923,
    "ident": "PL-0090",
    "type": "small_airport",
    "name": "Tworzyjanów Airstrip",
    "latitude_deg": 50.922834,
    "longitude_deg": 16.678917,
    "elevation_ft": 604,
    "continent": "EU",
    "iso_country": "PL",
    "iso_region": "PL-DS",
    "municipality": "Tworzyjanów",
    "scheduled_service": "no",
    "icao_code": "",
    "iata_code": "",
    "gps_code": "",
    "local_code": "",
    "home_link": "",
    "wikipedia_link": "",
    "keywords": "Sudeckie Stowarzyszenie Lotnicze Klub Sportowy"
  },
  {
    "id": 323187,
    "ident": "PL-0091",
    "type": "small_airport",
    "name": "Baryt Air Base",
    "latitude_deg": 51.055531,
    "longitude_deg": 16.013636,
    "elevation_ft": "",
    "continent": "EU",
    "iso_country": "PL",
    "iso_region": "PL-DS",
    "municipality": "Stanisławów",
    "scheduled_service": "no",
    "icao_code": "",
    "iata_code": "",
    "gps_code": "",
    "local_code": "",
    "home_link": "http://jpr-baryt.pl",
    "wikipedia_link": "",
    "keywords": "Baza Lotnicza JPR „Baryt”, JPR Baryt"
  },
  {
    "id": 323210,
    "ident": "PL-0092",
    "type": "small_airport",
    "name": "Annowo Airstrip",
    "latitude_deg": 52.803389,
    "longitude_deg": 17.879678,
    "elevation_ft": 350,
    "continent": "EU",
    "iso_country": "PL",
    "iso_region": "PL-KP",
    "municipality": "Annowo",
    "scheduled_service": "no",
    "icao_code": "",
    "iata_code": "",
    "gps_code": "",
    "local_code": "",
    "home_link": "",
    "wikipedia_link": "",
    "keywords": ""
  },
  {
    "id": 323213,
    "ident": "PL-0093",
    "type": "small_airport",
    "name": "Lądowisko Wilga",
    "latitude_deg": 51.8816709,
    "longitude_deg": 21.3653123,
    "elevation_ft": "",
    "continent": "EU",
    "iso_country": "PL",
    "iso_region": "PL-MZ",
    "municipality": "Wilga",
    "scheduled_service": "no",
    "icao_code": "",
    "iata_code": "",
    "gps_code": "",
    "local_code": "",
    "home_link": "",
    "wikipedia_link": "",
    "keywords": ""
  },
  {
    "id": 323253,
    "ident": "PL-0094",
    "type": "small_airport",
    "name": "Golędzinów Airstrip",
    "latitude_deg": 51.262749,
    "longitude_deg": 16.921832,
    "elevation_ft": 456,
    "continent": "EU",
    "iso_country": "PL",
    "iso_region": "PL-DS",
    "municipality": "Golędzinów",
    "scheduled_service": "no",
    "icao_code": "",
    "iata_code": "",
    "gps_code": "",
    "local_code": "",
    "home_link": "",
    "wikipedia_link": "",
    "keywords": "Lądowisko Golędzinów"
  },
  {
    "id": 323299,
    "ident": "PL-0095",
    "type": "small_airport",
    "name": "Wyszonowice UL",
    "latitude_deg": 50.782972,
    "longitude_deg": 17.161753,
    "elevation_ft": "",
    "continent": "EU",
    "iso_country": "PL",
    "iso_region": "PL-DS",
    "municipality": "Wyszonowice",
    "scheduled_service": "no",
    "icao_code": "",
    "iata_code": "",
    "gps_code": "",
    "local_code": "",
    "home_link": "",
    "wikipedia_link": "",
    "keywords": ""
  },
  {
    "id": 323346,
    "ident": "PL-0096",
    "type": "small_airport",
    "name": "Chełmżyca Airstrip",
    "latitude_deg": 53.670487,
    "longitude_deg": 19.46115,
    "elevation_ft": 323,
    "continent": "EU",
    "iso_country": "PL",
    "iso_region": "PL-WN",
    "municipality": "Chełmżyca",
    "scheduled_service": "no",
    "icao_code": "",
    "iata_code": "",
    "gps_code": "",
    "local_code": "",
    "home_link": "",
    "wikipedia_link": "",
    "keywords": ""
  },
  {
    "id": 323409,
    "ident": "PL-0097",
    "type": "small_airport",
    "name": "Nysa Airfield",
    "latitude_deg": 50.471573,
    "longitude_deg": 17.266817,
    "elevation_ft": "",
    "continent": "EU",
    "iso_country": "PL",
    "iso_region": "PL-OP",
    "municipality": "Głębinów",
    "scheduled_service": "no",
    "icao_code": "",
    "iata_code": "",
    "gps_code": "",
    "local_code": "",
    "home_link": "",
    "wikipedia_link": "",
    "keywords": ""
  },
  {
    "id": 323411,
    "ident": "PL-0098",
    "type": "small_airport",
    "name": "Łagowiec",
    "latitude_deg": 52.33525,
    "longitude_deg": 15.665277,
    "elevation_ft": "",
    "continent": "EU",
    "iso_country": "PL",
    "iso_region": "PL-LB",
    "municipality": "Łagowiec",
    "scheduled_service": "no",
    "icao_code": "",
    "iata_code": "",
    "gps_code": "",
    "local_code": "",
    "home_link": "",
    "wikipedia_link": "",
    "keywords": ""
  },
  {
    "id": 323444,
    "ident": "PL-0099",
    "type": "small_airport",
    "name": "Grabowiec Airstrip",
    "latitude_deg": 51.901197,
    "longitude_deg": 15.270643,
    "elevation_ft": "",
    "continent": "EU",
    "iso_country": "PL",
    "iso_region": "PL-LB",
    "municipality": "Świdnica",
    "scheduled_service": "no",
    "icao_code": "",
    "iata_code": "",
    "gps_code": "",
    "local_code": "",
    "home_link": "",
    "wikipedia_link": "",
    "keywords": "Lądowisko Grabowiec"
  },
  {
    "id": 323445,
    "ident": "PL-0100",
    "type": "small_airport",
    "name": "Śmiłowo Henryk Stokłosa Airfield",
    "latitude_deg": 53.144961,
    "longitude_deg": 16.882682,
    "elevation_ft": "",
    "continent": "EU",
    "iso_country": "PL",
    "iso_region": "PL-WP",
    "municipality": "Jeziorki",
    "scheduled_service": "no",
    "icao_code": "",
    "iata_code": "",
    "gps_code": "EPPS",
    "local_code": "",
    "home_link": "",
    "wikipedia_link": "",
    "keywords": "Lotnisko Henryka Stokłosy"
  },
  {
    "id": 323512,
    "ident": "PL-0101",
    "type": "small_airport",
    "name": "Makosieje Airfield",
    "latitude_deg": 53.807373,
    "longitude_deg": 22.540594,
    "elevation_ft": "",
    "continent": "EU",
    "iso_country": "PL",
    "iso_region": "PL-WN",
    "municipality": "Makosieje",
    "scheduled_service": "no",
    "icao_code": "",
    "iata_code": "",
    "gps_code": "EPEK",
    "local_code": "",
    "home_link": "",
    "wikipedia_link": "",
    "keywords": ""
  },
  {
    "id": 323513,
    "ident": "PL-0102",
    "type": "small_airport",
    "name": "Szklarka Przygodzicka Airfield",
    "latitude_deg": 51.488091,
    "longitude_deg": 17.795207,
    "elevation_ft": 443,
    "continent": "EU",
    "iso_country": "PL",
    "iso_region": "PL-WP",
    "municipality": "Szklarka Przygodzicka",
    "scheduled_service": "no",
    "icao_code": "",
    "iata_code": "",
    "gps_code": "",
    "local_code": "",
    "home_link": "",
    "wikipedia_link": "",
    "keywords": ""
  },
  {
    "id": 323606,
    "ident": "PL-0103",
    "type": "small_airport",
    "name": "Kamieńsk-Orla Góra Airfield",
    "latitude_deg": 51.22536,
    "longitude_deg": 19.418021,
    "elevation_ft": "",
    "continent": "EU",
    "iso_country": "PL",
    "iso_region": "PL-LD",
    "municipality": "Kamieńsk",
    "scheduled_service": "no",
    "icao_code": "",
    "iata_code": "",
    "gps_code": "",
    "local_code": "",
    "home_link": "",
    "wikipedia_link": "",
    "keywords": ""
  },
  {
    "id": 323608,
    "ident": "PL-0104",
    "type": "small_airport",
    "name": "Ulim",
    "latitude_deg": 52.693563,
    "longitude_deg": 15.215912,
    "elevation_ft": "",
    "continent": "EU",
    "iso_country": "PL",
    "iso_region": "PL-WP",
    "municipality": "Ulim",
    "scheduled_service": "no",
    "icao_code": "",
    "iata_code": "",
    "gps_code": "EPGW",
    "local_code": "",
    "home_link": "",
    "wikipedia_link": "",
    "keywords": ""
  },
  {
    "id": 323618,
    "ident": "PL-0105",
    "type": "small_airport",
    "name": "Linowiec Airfield",
    "latitude_deg": 54.007897,
    "longitude_deg": 18.499983,
    "elevation_ft": 358,
    "continent": "EU",
    "iso_country": "PL",
    "iso_region": "PL-PM",
    "municipality": "Linowiec",
    "scheduled_service": "no",
    "icao_code": "",
    "iata_code": "",
    "gps_code": "EPLI",
    "local_code": "",
    "home_link": "",
    "wikipedia_link": "",
    "keywords": ""
  },
  {
    "id": 323619,
    "ident": "PL-0106",
    "type": "small_airport",
    "name": "Jasienna Airfield",
    "latitude_deg": 49.716723,
    "longitude_deg": 20.811763,
    "elevation_ft": 1713,
    "continent": "EU",
    "iso_country": "PL",
    "iso_region": "PL-MA",
    "municipality": "Jasienna",
    "scheduled_service": "no",
    "icao_code": "",
    "iata_code": "",
    "gps_code": "",
    "local_code": "",
    "home_link": "",
    "wikipedia_link": "",
    "keywords": "AeroLach, Lądowisko Jasienna, Lotnisko Jasienna"
  },
  {
    "id": 323635,
    "ident": "PL-0107",
    "type": "small_airport",
    "name": "Mostki Airstrip",
    "latitude_deg": 52.27189,
    "longitude_deg": 15.369729,
    "elevation_ft": "",
    "continent": "EU",
    "iso_country": "PL",
    "iso_region": "PL-LB",
    "municipality": "Mostki",
    "scheduled_service": "no",
    "icao_code": "",
    "iata_code": "",
    "gps_code": "",
    "local_code": "",
    "home_link": "",
    "wikipedia_link": "",
    "keywords": ""
  },
  {
    "id": 323637,
    "ident": "PL-0108",
    "type": "small_airport",
    "name": "Herburtowo Forest Airfield",
    "latitude_deg": 52.902234,
    "longitude_deg": 16.129615,
    "elevation_ft": "",
    "continent": "EU",
    "iso_country": "PL",
    "iso_region": "PL-WP",
    "municipality": "Marianowo",
    "scheduled_service": "no",
    "icao_code": "",
    "iata_code": "",
    "gps_code": "",
    "local_code": "",
    "home_link": "",
    "wikipedia_link": "",
    "keywords": "Herburtowo"
  },
  {
    "id": 323645,
    "ident": "PL-0109",
    "type": "small_airport",
    "name": "Konopki Airfield",
    "latitude_deg": 52.989607,
    "longitude_deg": 20.506689,
    "elevation_ft": 413,
    "continent": "EU",
    "iso_country": "PL",
    "iso_region": "PL-MZ",
    "municipality": "Konopki",
    "scheduled_service": "no",
    "icao_code": "",
    "iata_code": "",
    "gps_code": "",
    "local_code": "",
    "home_link": "",
    "wikipedia_link": "",
    "keywords": ""
  },
  {
    "id": 323651,
    "ident": "PL-0110",
    "type": "small_airport",
    "name": "Pacółtowo Airfield",
    "latitude_deg": 53.5327,
    "longitude_deg": 20.1531,
    "elevation_ft": 645,
    "continent": "EU",
    "iso_country": "PL",
    "iso_region": "PL-WN",
    "municipality": "Pacółtowo",
    "scheduled_service": "no",
    "icao_code": "",
    "iata_code": "",
    "gps_code": "",
    "local_code": "",
    "home_link": "http://www.palacpacoltowo.com",
    "wikipedia_link": "",
    "keywords": ""
  },
  {
    "id": 323658,
    "ident": "PL-0111",
    "type": "small_airport",
    "name": "Lotnisko Mrągowo",
    "latitude_deg": 53.825276,
    "longitude_deg": 21.318983,
    "elevation_ft": "",
    "continent": "EU",
    "iso_country": "PL",
    "iso_region": "PL-WN",
    "municipality": "Mrągowo",
    "scheduled_service": "no",
    "icao_code": "",
    "iata_code": "",
    "gps_code": "EPMG",
    "local_code": "",
    "home_link": "",
    "wikipedia_link": "",
    "keywords": ""
  },
  {
    "id": 323668,
    "ident": "PL-0112",
    "type": "small_airport",
    "name": "Pawłowiczki Airfield",
    "latitude_deg": 50.244634,
    "longitude_deg": 18.023596,
    "elevation_ft": "",
    "continent": "EU",
    "iso_country": "PL",
    "iso_region": "PL-OP",
    "municipality": "Pawłowiczki",
    "scheduled_service": "no",
    "icao_code": "",
    "iata_code": "",
    "gps_code": "",
    "local_code": "",
    "home_link": "",
    "wikipedia_link": "",
    "keywords": "Lądowisko Pawłowiczki"
  },
  {
    "id": 323688,
    "ident": "PL-0113",
    "type": "closed",
    "name": "Solec Kujawski",
    "latitude_deg": 53.071092,
    "longitude_deg": 18.195064,
    "elevation_ft": "",
    "continent": "EU",
    "iso_country": "PL",
    "iso_region": "PL-KP",
    "municipality": "Solec Kujawski",
    "scheduled_service": "no",
    "icao_code": "",
    "iata_code": "",
    "gps_code": "",
    "local_code": "",
    "home_link": "",
    "wikipedia_link": "",
    "keywords": ""
  },
  {
    "id": 323689,
    "ident": "PL-0114",
    "type": "small_airport",
    "name": "Horodek Airfield",
    "latitude_deg": 49.351199,
    "longitude_deg": 22.481757,
    "elevation_ft": 1621,
    "continent": "EU",
    "iso_country": "PL",
    "iso_region": "PL-PK",
    "municipality": "Solina",
    "scheduled_service": "no",
    "icao_code": "",
    "iata_code": "",
    "gps_code": "",
    "local_code": "",
    "home_link": "",
    "wikipedia_link": "",
    "keywords": ""
  },
  {
    "id": 323690,
    "ident": "PL-0115",
    "type": "small_airport",
    "name": "Żernica Airfield",
    "latitude_deg": 49.362597,
    "longitude_deg": 22.330595,
    "elevation_ft": 1650,
    "continent": "EU",
    "iso_country": "PL",
    "iso_region": "PL-PK",
    "municipality": "Żernica Wyżna",
    "scheduled_service": "no",
    "icao_code": "",
    "iata_code": "",
    "gps_code": "",
    "local_code": "",
    "home_link": "",
    "wikipedia_link": "",
    "keywords": ""
  },
  {
    "id": 323738,
    "ident": "PL-0116",
    "type": "closed",
    "name": "Rogów Airstrip",
    "latitude_deg": 51.800561,
    "longitude_deg": 19.857478,
    "elevation_ft": "",
    "continent": "EU",
    "iso_country": "PL",
    "iso_region": "PL-LD",
    "municipality": "Rogów-Parcela",
    "scheduled_service": "no",
    "icao_code": "",
    "iata_code": "",
    "gps_code": "",
    "local_code": "",
    "home_link": "",
    "wikipedia_link": "",
    "keywords": ""
  },
  {
    "id": 323739,
    "ident": "PL-0117",
    "type": "small_airport",
    "name": "Kukały Airfield",
    "latitude_deg": 51.875631,
    "longitude_deg": 21.003014,
    "elevation_ft": "",
    "continent": "EU",
    "iso_country": "PL",
    "iso_region": "PL-MZ",
    "municipality": "Kukały",
    "scheduled_service": "no",
    "icao_code": "",
    "iata_code": "",
    "gps_code": "EPKU",
    "local_code": "",
    "home_link": "",
    "wikipedia_link": "",
    "keywords": ""
  },
  {
    "id": 323802,
    "ident": "PL-0118",
    "type": "small_airport",
    "name": "Oborniki Słonawy Airfield",
    "latitude_deg": 52.666858,
    "longitude_deg": 16.774546,
    "elevation_ft": 197,
    "continent": "EU",
    "iso_country": "PL",
    "iso_region": "PL-WP",
    "municipality": "Słonawy",
    "scheduled_service": "no",
    "icao_code": "",
    "iata_code": "",
    "gps_code": "",
    "local_code": "",
    "home_link": "http://www.osl-oborniki.info/",
    "wikipedia_link": "",
    "keywords": ""
  },
  {
    "id": 323854,
    "ident": "PL-0119",
    "type": "small_airport",
    "name": "Świebodzin Airstrip",
    "latitude_deg": 52.252266,
    "longitude_deg": 15.566415,
    "elevation_ft": "",
    "continent": "EU",
    "iso_country": "PL",
    "iso_region": "PL-LB",
    "municipality": "Świebodzin",
    "scheduled_service": "no",
    "icao_code": "",
    "iata_code": "",
    "gps_code": "",
    "local_code": "",
    "home_link": "",
    "wikipedia_link": "",
    "keywords": ""
  },
  {
    "id": 323871,
    "ident": "PL-0120",
    "type": "small_airport",
    "name": "Bełchatów Airstrip",
    "latitude_deg": 51.402116,
    "longitude_deg": 19.378239,
    "elevation_ft": "",
    "continent": "EU",
    "iso_country": "PL",
    "iso_region": "PL-LD",
    "municipality": "Kałduny",
    "scheduled_service": "no",
    "icao_code": "",
    "iata_code": "",
    "gps_code": "EPBE",
    "local_code": "",
    "home_link": "",
    "wikipedia_link": "",
    "keywords": ""
  },
  {
    "id": 323873,
    "ident": "PL-0121",
    "type": "small_airport",
    "name": "Rzepin Airstrip",
    "latitude_deg": 52.3221807,
    "longitude_deg": 14.810701,
    "elevation_ft": "",
    "continent": "EU",
    "iso_country": "PL",
    "iso_region": "PL-LB",
    "municipality": "Rzepin",
    "scheduled_service": "no",
    "icao_code": "",
    "iata_code": "",
    "gps_code": "",
    "local_code": "",
    "home_link": "",
    "wikipedia_link": "",
    "keywords": ""
  },
  {
    "id": 323874,
    "ident": "PL-0122",
    "type": "small_airport",
    "name": "Tarnów Airfield",
    "latitude_deg": 50.001572,
    "longitude_deg": 21.004145,
    "elevation_ft": 796,
    "continent": "EU",
    "iso_country": "PL",
    "iso_region": "PL-MA",
    "municipality": "Tarnów",
    "scheduled_service": "no",
    "icao_code": "",
    "iata_code": "",
    "gps_code": "",
    "local_code": "",
    "home_link": "",
    "wikipedia_link": "",
    "keywords": "Lądowisko Aeroklubu Ziemi Tarnowskiej, Lądowisko Tarnów"
  },
  {
    "id": 323876,
    "ident": "PL-0123",
    "type": "small_airport",
    "name": "Międzyrzecz Airfield",
    "latitude_deg": 52.419281,
    "longitude_deg": 15.580507,
    "elevation_ft": "",
    "continent": "EU",
    "iso_country": "PL",
    "iso_region": "PL-LB",
    "municipality": "Międzyrzecz",
    "scheduled_service": "no",
    "icao_code": "",
    "iata_code": "",
    "gps_code": "",
    "local_code": "",
    "home_link": "",
    "wikipedia_link": "",
    "keywords": "Międzyrzecz 2"
  },
  {
    "id": 323911,
    "ident": "PL-0124",
    "type": "small_airport",
    "name": "Kępa Airfield",
    "latitude_deg": 52.724271,
    "longitude_deg": 20.421352,
    "elevation_ft": 322,
    "continent": "EU",
    "iso_country": "PL",
    "iso_region": "PL-MZ",
    "municipality": "Kępa",
    "scheduled_service": "no",
    "icao_code": "",
    "iata_code": "",
    "gps_code": "",
    "local_code": "",
    "home_link": "",
    "wikipedia_link": "",
    "keywords": "Kepa"
  },
  {
    "id": 323946,
    "ident": "PL-0125",
    "type": "small_airport",
    "name": "Czyże",
    "latitude_deg": 52.786205,
    "longitude_deg": 23.430968,
    "elevation_ft": "",
    "continent": "EU",
    "iso_country": "PL",
    "iso_region": "PL-PD",
    "municipality": "Czyże",
    "scheduled_service": "no",
    "icao_code": "",
    "iata_code": "",
    "gps_code": "EPCH",
    "local_code": "",
    "home_link": "",
    "wikipedia_link": "",
    "keywords": "Hajnówka"
  },
  {
    "id": 324498,
    "ident": "PL-0126",
    "type": "heliport",
    "name": "Narew Helipad",
    "latitude_deg": 52.908916,
    "longitude_deg": 23.539053,
    "elevation_ft": 445,
    "continent": "EU",
    "iso_country": "PL",
    "iso_region": "PL-PD",
    "municipality": "Narew",
    "scheduled_service": "no",
    "icao_code": "",
    "iata_code": "",
    "gps_code": "",
    "local_code": "",
    "home_link": "",
    "wikipedia_link": "",
    "keywords": ""
  },
  {
    "id": 324499,
    "ident": "PL-0127",
    "type": "small_airport",
    "name": "Zawiszyn Airfield",
    "latitude_deg": 54.277943,
    "longitude_deg": 22.537944,
    "elevation_ft": 724,
    "continent": "EU",
    "iso_country": "PL",
    "iso_region": "PL-WN",
    "municipality": "Zawiszyn",
    "scheduled_service": "no",
    "icao_code": "",
    "iata_code": "",
    "gps_code": "EPZW",
    "local_code": "",
    "home_link": "",
    "wikipedia_link": "",
    "keywords": ""
  },
  {
    "id": 324501,
    "ident": "PL-0128",
    "type": "small_airport",
    "name": "Lisy Airstrip",
    "latitude_deg": 54.219442,
    "longitude_deg": 22.044803,
    "elevation_ft": 420,
    "continent": "EU",
    "iso_country": "PL",
    "iso_region": "PL-WN",
    "municipality": "Lisy",
    "scheduled_service": "no",
    "icao_code": "",
    "iata_code": "",
    "gps_code": "",
    "local_code": "",
    "home_link": "",
    "wikipedia_link": "",
    "keywords": ""
  },
  {
    "id": 324503,
    "ident": "PL-0129",
    "type": "small_airport",
    "name": "Stare Juchy Landing Site",
    "latitude_deg": 53.90725,
    "longitude_deg": 22.233334,
    "elevation_ft": 377,
    "continent": "EU",
    "iso_country": "PL",
    "iso_region": "PL-WN",
    "municipality": "Jeziorowskie",
    "scheduled_service": "no",
    "icao_code": "",
    "iata_code": "",
    "gps_code": "",
    "local_code": "",
    "home_link": "",
    "wikipedia_link": "",
    "keywords": "Jeziorowskie"
  },
  {
    "id": 324505,
    "ident": "PL-0130",
    "type": "small_airport",
    "name": "Bożykowo Airfield",
    "latitude_deg": 54.073224,
    "longitude_deg": 21.83375,
    "elevation_ft": 491,
    "continent": "EU",
    "iso_country": "PL",
    "iso_region": "PL-WN",
    "municipality": "Spytkowo",
    "scheduled_service": "no",
    "icao_code": "",
    "iata_code": "",
    "gps_code": "",
    "local_code": "",
    "home_link": "",
    "wikipedia_link": "",
    "keywords": ""
  },
  {
    "id": 324506,
    "ident": "PL-0131",
    "type": "small_airport",
    "name": "Antonowo Airfield",
    "latitude_deg": 54.058166,
    "longitude_deg": 21.746916,
    "elevation_ft": 390,
    "continent": "EU",
    "iso_country": "PL",
    "iso_region": "PL-WN",
    "municipality": "Giżycko",
    "scheduled_service": "no",
    "icao_code": "",
    "iata_code": "",
    "gps_code": "",
    "local_code": "",
    "home_link": "",
    "wikipedia_link": "",
    "keywords": ""
  },
  {
    "id": 324508,
    "ident": "PL-0132",
    "type": "small_airport",
    "name": "Zyzdrojowa Wola",
    "latitude_deg": 53.657473,
    "longitude_deg": 21.277417,
    "elevation_ft": 450,
    "continent": "EU",
    "iso_country": "PL",
    "iso_region": "PL-WN",
    "municipality": "Zyzdrojowa Wola",
    "scheduled_service": "no",
    "icao_code": "",
    "iata_code": "",
    "gps_code": "",
    "local_code": "",
    "home_link": "",
    "wikipedia_link": "",
    "keywords": ""
  },
  {
    "id": 324509,
    "ident": "PL-0133",
    "type": "small_airport",
    "name": "Lewickie Private Airstrip",
    "latitude_deg": 53.029083,
    "longitude_deg": 23.134638,
    "elevation_ft": 430,
    "continent": "EU",
    "iso_country": "PL",
    "iso_region": "PL-PD",
    "municipality": "Lewickie",
    "scheduled_service": "no",
    "icao_code": "",
    "iata_code": "",
    "gps_code": "",
    "local_code": "",
    "home_link": "",
    "wikipedia_link": "",
    "keywords": ""
  },
  {
    "id": 324510,
    "ident": "PL-0134",
    "type": "small_airport",
    "name": "Krynice Kolonia",
    "latitude_deg": 53.231111,
    "longitude_deg": 23.044081,
    "elevation_ft": 580,
    "continent": "EU",
    "iso_country": "PL",
    "iso_region": "PL-PD",
    "municipality": "Krynice",
    "scheduled_service": "no",
    "icao_code": "",
    "iata_code": "",
    "gps_code": "",
    "local_code": "",
    "home_link": "",
    "wikipedia_link": "",
    "keywords": ""
  },
  {
    "id": 324514,
    "ident": "PL-0135",
    "type": "small_airport",
    "name": "Brody Airfield",
    "latitude_deg": 53.360165,
    "longitude_deg": 23.133138,
    "elevation_ft": 480,
    "continent": "EU",
    "iso_country": "PL",
    "iso_region": "PL-PD",
    "municipality": "Brody",
    "scheduled_service": "no",
    "icao_code": "",
    "iata_code": "",
    "gps_code": "",
    "local_code": "",
    "home_link": "",
    "wikipedia_link": "",
    "keywords": ""
  },
  {
    "id": 324517,
    "ident": "PL-0136",
    "type": "small_airport",
    "name": "Szorce Airstrip",
    "latitude_deg": 53.285388,
    "longitude_deg": 22.674194,
    "elevation_ft": 360,
    "continent": "EU",
    "iso_country": "PL",
    "iso_region": "PL-PD",
    "municipality": "Szorce",
    "scheduled_service": "no",
    "icao_code": "",
    "iata_code": "",
    "gps_code": "",
    "local_code": "",
    "home_link": "",
    "wikipedia_link": "",
    "keywords": ""
  },
  {
    "id": 324519,
    "ident": "PL-0137",
    "type": "small_airport",
    "name": "Żłobek Mały Airfield",
    "latitude_deg": 51.454611,
    "longitude_deg": 23.542472,
    "elevation_ft": 515,
    "continent": "EU",
    "iso_country": "PL",
    "iso_region": "PL-LU",
    "municipality": "Żłobek",
    "scheduled_service": "no",
    "icao_code": "",
    "iata_code": "",
    "gps_code": "",
    "local_code": "",
    "home_link": "",
    "wikipedia_link": "",
    "keywords": ""
  },
  {
    "id": 324524,
    "ident": "PL-0138",
    "type": "small_airport",
    "name": "Oleszyce Airstrip",
    "latitude_deg": 50.170308,
    "longitude_deg": 23.057722,
    "elevation_ft": 591,
    "continent": "EU",
    "iso_country": "PL",
    "iso_region": "PL-PK",
    "municipality": "Oleszyce",
    "scheduled_service": "no",
    "icao_code": "",
    "iata_code": "",
    "gps_code": "",
    "local_code": "",
    "home_link": "",
    "wikipedia_link": "",
    "keywords": ""
  },
  {
    "id": 331643,
    "ident": "PL-0139",
    "type": "heliport",
    "name": "Konstancin Heliport",
    "latitude_deg": 52.108543,
    "longitude_deg": 21.18733,
    "elevation_ft": "",
    "continent": "EU",
    "iso_country": "PL",
    "iso_region": "PL-MZ",
    "municipality": "Ciszyca",
    "scheduled_service": "no",
    "icao_code": "",
    "iata_code": "",
    "gps_code": "",
    "local_code": "",
    "home_link": "",
    "wikipedia_link": "",
    "keywords": ""
  },
  {
    "id": 331713,
    "ident": "PL-0140",
    "type": "small_airport",
    "name": "Jaryszewo Airstrip",
    "latitude_deg": 52.69077,
    "longitude_deg": 16.615541,
    "elevation_ft": 200,
    "continent": "EU",
    "iso_country": "PL",
    "iso_region": "PL-WP",
    "municipality": "",
    "scheduled_service": "no",
    "icao_code": "",
    "iata_code": "",
    "gps_code": "",
    "local_code": "",
    "home_link": "",
    "wikipedia_link": "",
    "keywords": ""
  },
  {
    "id": 332719,
    "ident": "PL-0141",
    "type": "small_airport",
    "name": "Wola Krakowiańska",
    "latitude_deg": 52.027223,
    "longitude_deg": 20.807118,
    "elevation_ft": "",
    "continent": "EU",
    "iso_country": "PL",
    "iso_region": "PL-MZ",
    "municipality": "",
    "scheduled_service": "no",
    "icao_code": "",
    "iata_code": "",
    "gps_code": "",
    "local_code": "",
    "home_link": "",
    "wikipedia_link": "",
    "keywords": ""
  },
  {
    "id": 332899,
    "ident": "PL-0142",
    "type": "small_airport",
    "name": "Żabia Wola Airstrip",
    "latitude_deg": 52.037988,
    "longitude_deg": 20.678865,
    "elevation_ft": "",
    "continent": "EU",
    "iso_country": "PL",
    "iso_region": "PL-MZ",
    "municipality": "Zalesie",
    "scheduled_service": "no",
    "icao_code": "",
    "iata_code": "",
    "gps_code": "",
    "local_code": "",
    "home_link": "",
    "wikipedia_link": "",
    "keywords": ""
  },
  {
    "id": 332981,
    "ident": "PL-0143",
    "type": "small_airport",
    "name": "Ryki Airstrip",
    "latitude_deg": 51.644122,
    "longitude_deg": 21.94768,
    "elevation_ft": "",
    "continent": "EU",
    "iso_country": "PL",
    "iso_region": "PL-LU",
    "municipality": "",
    "scheduled_service": "no",
    "icao_code": "",
    "iata_code": "",
    "gps_code": "",
    "local_code": "",
    "home_link": "",
    "wikipedia_link": "",
    "keywords": ""
  },
  {
    "id": 325028,
    "ident": "PL-0144",
    "type": "small_airport",
    "name": "Więckowy Airstrip",
    "latitude_deg": 54.062273,
    "longitude_deg": 18.367292,
    "elevation_ft": 523,
    "continent": "EU",
    "iso_country": "PL",
    "iso_region": "PL-PM",
    "municipality": "Więckowy",
    "scheduled_service": "no",
    "icao_code": "",
    "iata_code": "",
    "gps_code": "",
    "local_code": "",
    "home_link": "",
    "wikipedia_link": "",
    "keywords": ""
  },
  {
    "id": 325341,
    "ident": "PL-0145",
    "type": "small_airport",
    "name": "Dobrosułów Airfield",
    "latitude_deg": 52.1989335,
    "longitude_deg": 15.1266946,
    "elevation_ft": "",
    "continent": "EU",
    "iso_country": "PL",
    "iso_region": "PL-LB",
    "municipality": "",
    "scheduled_service": "no",
    "icao_code": "",
    "iata_code": "",
    "gps_code": "",
    "local_code": "",
    "home_link": "",
    "wikipedia_link": "",
    "keywords": ""
  },
  {
    "id": 326006,
    "ident": "PL-0146",
    "type": "small_airport",
    "name": "Natolin Airfield",
    "latitude_deg": 51.016239,
    "longitude_deg": 18.754739,
    "elevation_ft": 801,
    "continent": "EU",
    "iso_country": "PL",
    "iso_region": "PL-SL",
    "municipality": "Lipie",
    "scheduled_service": "no",
    "icao_code": "",
    "iata_code": "",
    "gps_code": "",
    "local_code": "",
    "home_link": "",
    "wikipedia_link": "",
    "keywords": "Lądowisko Natolin"
  },
  {
    "id": 326131,
    "ident": "PL-0147",
    "type": "small_airport",
    "name": "Skorupy",
    "latitude_deg": 52.055035,
    "longitude_deg": 21.428755,
    "elevation_ft": "",
    "continent": "EU",
    "iso_country": "PL",
    "iso_region": "PL-MZ",
    "municipality": "Skorupy",
    "scheduled_service": "no",
    "icao_code": "",
    "iata_code": "",
    "gps_code": "",
    "local_code": "",
    "home_link": "",
    "wikipedia_link": "",
    "keywords": "Kołbiel, Kolbiel"
  },
  {
    "id": 326176,
    "ident": "PL-0148",
    "type": "closed",
    "name": "Konarzyny Air Base",
    "latitude_deg": 53.825333,
    "longitude_deg": 17.3525,
    "elevation_ft": "",
    "continent": "EU",
    "iso_country": "PL",
    "iso_region": "PL-PM",
    "municipality": "Konarzyny",
    "scheduled_service": "no",
    "icao_code": "",
    "iata_code": "",
    "gps_code": "",
    "local_code": "",
    "home_link": "",
    "wikipedia_link": "",
    "keywords": "Sapolno"
  },
  {
    "id": 326494,
    "ident": "PL-0149",
    "type": "small_airport",
    "name": "Witnica Airstrip",
    "latitude_deg": 52.6735,
    "longitude_deg": 14.8687,
    "elevation_ft": "",
    "continent": "EU",
    "iso_country": "PL",
    "iso_region": "PL-WP",
    "municipality": "Witnica",
    "scheduled_service": "no",
    "icao_code": "",
    "iata_code": "",
    "gps_code": "",
    "local_code": "",
    "home_link": "",
    "wikipedia_link": "",
    "keywords": "Lądowisko Witniec,Witnica"
  },
  {
    "id": 326520,
    "ident": "PL-0150",
    "type": "small_airport",
    "name": "Folwark Piaski Airfield",
    "latitude_deg": 52.4798514,
    "longitude_deg": 17.7678974,
    "elevation_ft": "",
    "continent": "EU",
    "iso_country": "PL",
    "iso_region": "PL-WP",
    "municipality": "Piaski",
    "scheduled_service": "no",
    "icao_code": "",
    "iata_code": "",
    "gps_code": "",
    "local_code": "",
    "home_link": "",
    "wikipedia_link": "",
    "keywords": ""
  },
  {
    "id": 326748,
    "ident": "PL-0151",
    "type": "small_airport",
    "name": "Lotnisko Orneta",
    "latitude_deg": 54.126694,
    "longitude_deg": 20.0881201,
    "elevation_ft": "",
    "continent": "EU",
    "iso_country": "PL",
    "iso_region": "PL-WN",
    "municipality": "Orneta",
    "scheduled_service": "no",
    "icao_code": "",
    "iata_code": "",
    "gps_code": "",
    "local_code": "",
    "home_link": "",
    "wikipedia_link": "",
    "keywords": ""
  },
  {
    "id": 326890,
    "ident": "PL-0152",
    "type": "small_airport",
    "name": "Donimierz Airfield",
    "latitude_deg": 54.486777,
    "longitude_deg": 18.167569,
    "elevation_ft": 583,
    "continent": "EU",
    "iso_country": "PL",
    "iso_region": "PL-PM",
    "municipality": "Donimierz",
    "scheduled_service": "no",
    "icao_code": "",
    "iata_code": "",
    "gps_code": "",
    "local_code": "",
    "home_link": "",
    "wikipedia_link": "",
    "keywords": "Lądowisko Donimierz"
  },
  {
    "id": 327323,
    "ident": "PL-0153",
    "type": "small_airport",
    "name": "Lądowisko Pago Dąbcze",
    "latitude_deg": 51.8187067,
    "longitude_deg": 16.6601499,
    "elevation_ft": "",
    "continent": "EU",
    "iso_country": "PL",
    "iso_region": "PL-WP",
    "municipality": "Dąbcze",
    "scheduled_service": "no",
    "icao_code": "",
    "iata_code": "",
    "gps_code": "",
    "local_code": "",
    "home_link": "",
    "wikipedia_link": "",
    "keywords": ""
  },
  {
    "id": 328168,
    "ident": "PL-0154",
    "type": "small_airport",
    "name": "Nieborów-Bobrowniki Airfield",
    "latitude_deg": 52.065745,
    "longitude_deg": 20.032263,
    "elevation_ft": 289,
    "continent": "EU",
    "iso_country": "PL",
    "iso_region": "PL-LD",
    "municipality": "Bobrowniki",
    "scheduled_service": "no",
    "icao_code": "",
    "iata_code": "",
    "gps_code": "",
    "local_code": "",
    "home_link": "http://aviators.pl",
    "wikipedia_link": "",
    "keywords": ""
  },
  {
    "id": 328209,
    "ident": "PL-0155",
    "type": "small_airport",
    "name": "Łowicz Airfield",
    "latitude_deg": 52.083171,
    "longitude_deg": 19.858536,
    "elevation_ft": 304,
    "continent": "EU",
    "iso_country": "PL",
    "iso_region": "PL-LD",
    "municipality": "Łowicz",
    "scheduled_service": "no",
    "icao_code": "",
    "iata_code": "",
    "gps_code": "",
    "local_code": "",
    "home_link": "",
    "wikipedia_link": "",
    "keywords": ""
  },
  {
    "id": 328210,
    "ident": "PL-0156",
    "type": "small_airport",
    "name": "Brzeziny Airfield",
    "latitude_deg": 51.808039,
    "longitude_deg": 19.738517,
    "elevation_ft": "",
    "continent": "EU",
    "iso_country": "PL",
    "iso_region": "PL-LD",
    "municipality": "Brzeziny",
    "scheduled_service": "no",
    "icao_code": "",
    "iata_code": "",
    "gps_code": "",
    "local_code": "",
    "home_link": "",
    "wikipedia_link": "",
    "keywords": ""
  },
  {
    "id": 328241,
    "ident": "PL-0157",
    "type": "small_airport",
    "name": "Kutno",
    "latitude_deg": 52.2085919,
    "longitude_deg": 19.3907223,
    "elevation_ft": "",
    "continent": "EU",
    "iso_country": "PL",
    "iso_region": "PL-LD",
    "municipality": "",
    "scheduled_service": "no",
    "icao_code": "",
    "iata_code": "",
    "gps_code": "",
    "local_code": "",
    "home_link": "",
    "wikipedia_link": "",
    "keywords": ""
  },
  {
    "id": 328243,
    "ident": "PL-0158",
    "type": "small_airport",
    "name": "Konary Airstrip",
    "latitude_deg": 52.287427,
    "longitude_deg": 20.277461,
    "elevation_ft": "",
    "continent": "EU",
    "iso_country": "PL",
    "iso_region": "PL-MZ",
    "municipality": "Brochow",
    "scheduled_service": "no",
    "icao_code": "",
    "iata_code": "",
    "gps_code": "",
    "local_code": "",
    "home_link": "",
    "wikipedia_link": "",
    "keywords": "EPBH, Plecewice"
  },
  {
    "id": 328541,
    "ident": "PL-0159",
    "type": "small_airport",
    "name": "Suliszew 2 Airstrip",
    "latitude_deg": 51.925352,
    "longitude_deg": 20.265214,
    "elevation_ft": 420,
    "continent": "EU",
    "iso_country": "PL",
    "iso_region": "PL-LD",
    "municipality": "Suliszew",
    "scheduled_service": "no",
    "icao_code": "",
    "iata_code": "",
    "gps_code": "",
    "local_code": "",
    "home_link": "",
    "wikipedia_link": "",
    "keywords": ""
  },
  {
    "id": 328544,
    "ident": "PL-0160",
    "type": "small_airport",
    "name": "Skierniewice-Psary Airstrip",
    "latitude_deg": 51.886041,
    "longitude_deg": 20.324996,
    "elevation_ft": "",
    "continent": "EU",
    "iso_country": "PL",
    "iso_region": "PL-LD",
    "municipality": "Esterka",
    "scheduled_service": "no",
    "icao_code": "",
    "iata_code": "",
    "gps_code": "",
    "local_code": "",
    "home_link": "",
    "wikipedia_link": "",
    "keywords": ""
  },
  {
    "id": 328561,
    "ident": "PL-0161",
    "type": "small_airport",
    "name": "Walendów",
    "latitude_deg": 52.0805171,
    "longitude_deg": 20.8530837,
    "elevation_ft": "",
    "continent": "EU",
    "iso_country": "PL",
    "iso_region": "PL-MZ",
    "municipality": "",
    "scheduled_service": "no",
    "icao_code": "",
    "iata_code": "",
    "gps_code": "",
    "local_code": "",
    "home_link": "",
    "wikipedia_link": "",
    "keywords": ""
  },
  {
    "id": 329010,
    "ident": "PL-0162",
    "type": "small_airport",
    "name": "Stary Wielisław Airfield",
    "latitude_deg": 50.407065,
    "longitude_deg": 16.563007,
    "elevation_ft": 1240,
    "continent": "EU",
    "iso_country": "PL",
    "iso_region": "PL-DS",
    "municipality": "Stary Wielisław",
    "scheduled_service": "no",
    "icao_code": "",
    "iata_code": "",
    "gps_code": "",
    "local_code": "",
    "home_link": "",
    "wikipedia_link": "",
    "keywords": ""
  },
  {
    "id": 330141,
    "ident": "PL-0163",
    "type": "closed",
    "name": "Brużyczka Mała Airstrip",
    "latitude_deg": 51.848148,
    "longitude_deg": 19.32928,
    "elevation_ft": 600,
    "continent": "EU",
    "iso_country": "PL",
    "iso_region": "PL-LD",
    "municipality": "Brużyczka Mała",
    "scheduled_service": "no",
    "icao_code": "",
    "iata_code": "",
    "gps_code": "",
    "local_code": "",
    "home_link": "",
    "wikipedia_link": "",
    "keywords": ""
  },
  {
    "id": 330370,
    "ident": "PL-0164",
    "type": "small_airport",
    "name": "Sowiniec",
    "latitude_deg": 52.237254,
    "longitude_deg": 16.889057,
    "elevation_ft": "",
    "continent": "EU",
    "iso_country": "PL",
    "iso_region": "PL-WP",
    "municipality": "Mosina",
    "scheduled_service": "no",
    "icao_code": "",
    "iata_code": "",
    "gps_code": "",
    "local_code": "",
    "home_link": "",
    "wikipedia_link": "",
    "keywords": ""
  },
  {
    "id": 333987,
    "ident": "PL-0165",
    "type": "small_airport",
    "name": "Ikar Jasło Airstrip",
    "latitude_deg": 49.752745,
    "longitude_deg": 21.511692,
    "elevation_ft": 760,
    "continent": "EU",
    "iso_country": "PL",
    "iso_region": "PL-PK",
    "municipality": "Jasło",
    "scheduled_service": "no",
    "icao_code": "",
    "iata_code": "",
    "gps_code": "",
    "local_code": "",
    "home_link": "http://www.jsl-ikar.eu/",
    "wikipedia_link": "",
    "keywords": "Lotnisko Ikar Jasło"
  },
  {
    "id": 330659,
    "ident": "PL-0166",
    "type": "heliport",
    "name": "Heli Taxi Chocznia",
    "latitude_deg": 49.8806084,
    "longitude_deg": 19.4671623,
    "elevation_ft": "",
    "continent": "EU",
    "iso_country": "PL",
    "iso_region": "PL-MA",
    "municipality": "Chocznia",
    "scheduled_service": "no",
    "icao_code": "",
    "iata_code": "",
    "gps_code": "",
    "local_code": "",
    "home_link": "",
    "wikipedia_link": "",
    "keywords": ""
  },
  {
    "id": 331005,
    "ident": "PL-0167",
    "type": "small_airport",
    "name": "Chojnice Airfield",
    "latitude_deg": 53.680788,
    "longitude_deg": 17.533665,
    "elevation_ft": 536,
    "continent": "EU",
    "iso_country": "PL",
    "iso_region": "PL-PM",
    "municipality": "Chojnice",
    "scheduled_service": "no",
    "icao_code": "",
    "iata_code": "",
    "gps_code": "",
    "local_code": "",
    "home_link": "",
    "wikipedia_link": "",
    "keywords": ""
  },
  {
    "id": 331012,
    "ident": "PL-0168",
    "type": "small_airport",
    "name": "Stary Kamień Airstrip",
    "latitude_deg": 53.724312,
    "longitude_deg": 19.205135,
    "elevation_ft": 336,
    "continent": "EU",
    "iso_country": "PL",
    "iso_region": "PL-PM",
    "municipality": "Stary Kamień",
    "scheduled_service": "no",
    "icao_code": "",
    "iata_code": "",
    "gps_code": "",
    "local_code": "",
    "home_link": "",
    "wikipedia_link": "",
    "keywords": ""
  },
  {
    "id": 331065,
    "ident": "PL-0169",
    "type": "small_airport",
    "name": "Rytel-Uboga Airstrip",
    "latitude_deg": 53.739132,
    "longitude_deg": 17.830447,
    "elevation_ft": 407,
    "continent": "EU",
    "iso_country": "PL",
    "iso_region": "PL-PM",
    "municipality": "Rytel",
    "scheduled_service": "no",
    "icao_code": "",
    "iata_code": "",
    "gps_code": "",
    "local_code": "",
    "home_link": "",
    "wikipedia_link": "",
    "keywords": ""
  },
  {
    "id": 331264,
    "ident": "PL-0170",
    "type": "small_airport",
    "name": "Dębiczek Airstrip",
    "latitude_deg": 52.267907,
    "longitude_deg": 17.329428,
    "elevation_ft": "",
    "continent": "EU",
    "iso_country": "PL",
    "iso_region": "PL-WP",
    "municipality": "Dębiczek",
    "scheduled_service": "no",
    "icao_code": "",
    "iata_code": "",
    "gps_code": "",
    "local_code": "",
    "home_link": "",
    "wikipedia_link": "",
    "keywords": ""
  },
  {
    "id": 334265,
    "ident": "PL-0171",
    "type": "small_airport",
    "name": "Różanki Airstrip",
    "latitude_deg": 52.772424,
    "longitude_deg": 15.306475,
    "elevation_ft": 200,
    "continent": "EU",
    "iso_country": "PL",
    "iso_region": "PL-LB",
    "municipality": "Kłodawa",
    "scheduled_service": "no",
    "icao_code": "",
    "iata_code": "",
    "gps_code": "",
    "local_code": "",
    "home_link": "",
    "wikipedia_link": "",
    "keywords": ""
  },
  {
    "id": 335223,
    "ident": "PL-0172",
    "type": "small_airport",
    "name": "Ldzań Airfield",
    "latitude_deg": 51.58955,
    "longitude_deg": 19.25418,
    "elevation_ft": 607,
    "continent": "EU",
    "iso_country": "PL",
    "iso_region": "PL-LD",
    "municipality": "Ldzań",
    "scheduled_service": "no",
    "icao_code": "",
    "iata_code": "",
    "gps_code": "EPLD",
    "local_code": "",
    "home_link": "",
    "wikipedia_link": "",
    "keywords": "Lądowisko Ldzań"
  },
  {
    "id": 335324,
    "ident": "PL-0173",
    "type": "small_airport",
    "name": "Lądowisko Wlewsk",
    "latitude_deg": 53.2755,
    "longitude_deg": 19.7606,
    "elevation_ft": "",
    "continent": "EU",
    "iso_country": "PL",
    "iso_region": "PL-WN",
    "municipality": "",
    "scheduled_service": "no",
    "icao_code": "",
    "iata_code": "",
    "gps_code": "",
    "local_code": "",
    "home_link": "",
    "wikipedia_link": "",
    "keywords": ""
  },
  {
    "id": 336330,
    "ident": "PL-0174",
    "type": "small_airport",
    "name": "Wieluń-Olewin Airfield",
    "latitude_deg": 51.214465,
    "longitude_deg": 18.631675,
    "elevation_ft": 600,
    "continent": "EU",
    "iso_country": "PL",
    "iso_region": "PL-LD",
    "municipality": "Olewin",
    "scheduled_service": "no",
    "icao_code": "",
    "iata_code": "",
    "gps_code": "",
    "local_code": "",
    "home_link": "",
    "wikipedia_link": "",
    "keywords": "Lądowisko Olewin"
  },
  {
    "id": 337303,
    "ident": "PL-0175",
    "type": "small_airport",
    "name": "Lotnisko Wisznice",
    "latitude_deg": 51.7789,
    "longitude_deg": 23.165767,
    "elevation_ft": "",
    "continent": "EU",
    "iso_country": "PL",
    "iso_region": "PL-LU",
    "municipality": "Wisznice",
    "scheduled_service": "no",
    "icao_code": "",
    "iata_code": "",
    "gps_code": "",
    "local_code": "",
    "home_link": "",
    "wikipedia_link": "",
    "keywords": ""
  },
  {
    "id": 337304,
    "ident": "PL-0176",
    "type": "small_airport",
    "name": "Lotnisko Nadrybie",
    "latitude_deg": 51.35107,
    "longitude_deg": 23.02698,
    "elevation_ft": "",
    "continent": "EU",
    "iso_country": "PL",
    "iso_region": "PL-LU",
    "municipality": "",
    "scheduled_service": "no",
    "icao_code": "",
    "iata_code": "",
    "gps_code": "",
    "local_code": "",
    "home_link": "",
    "wikipedia_link": "",
    "keywords": ""
  },
  {
    "id": 338774,
    "ident": "PL-0177",
    "type": "small_airport",
    "name": "Lądowisko Kamionka",
    "latitude_deg": 53.67644,
    "longitude_deg": 18.63286,
    "elevation_ft": "",
    "continent": "EU",
    "iso_country": "PL",
    "iso_region": "PL-KP",
    "municipality": "Smętowo-Graniczne",
    "scheduled_service": "no",
    "icao_code": "",
    "iata_code": "",
    "gps_code": "",
    "local_code": "",
    "home_link": "",
    "wikipedia_link": "",
    "keywords": "Cinek"
  },
  {
    "id": 341471,
    "ident": "PL-0178",
    "type": "small_airport",
    "name": "Goczałkowice",
    "latitude_deg": 49.9524,
    "longitude_deg": 18.9419,
    "elevation_ft": 870,
    "continent": "EU",
    "iso_country": "PL",
    "iso_region": "PL-SL",
    "municipality": "",
    "scheduled_service": "no",
    "icao_code": "",
    "iata_code": "",
    "gps_code": "",
    "local_code": "",
    "home_link": "",
    "wikipedia_link": "",
    "keywords": ""
  },
  {
    "id": 342328,
    "ident": "PL-0179",
    "type": "small_airport",
    "name": "Wincentów Airstrip",
    "latitude_deg": 51.93768,
    "longitude_deg": 21.16462,
    "elevation_ft": "",
    "continent": "EU",
    "iso_country": "PL",
    "iso_region": "PL-MZ",
    "municipality": "Wincentów",
    "scheduled_service": "no",
    "icao_code": "",
    "iata_code": "",
    "gps_code": "",
    "local_code": "",
    "home_link": "",
    "wikipedia_link": "",
    "keywords": ""
  },
  {
    "id": 343251,
    "ident": "PL-0180",
    "type": "small_airport",
    "name": "Kępno Airstrip",
    "latitude_deg": 51.32205,
    "longitude_deg": 17.97273,
    "elevation_ft": "",
    "continent": "EU",
    "iso_country": "PL",
    "iso_region": "PL-WP",
    "municipality": "",
    "scheduled_service": "no",
    "icao_code": "",
    "iata_code": "",
    "gps_code": "",
    "local_code": "",
    "home_link": "",
    "wikipedia_link": "",
    "keywords": "Kliny"
  },
  {
    "id": 343252,
    "ident": "PL-0181",
    "type": "small_airport",
    "name": "Majory Airstrip",
    "latitude_deg": 51.4316,
    "longitude_deg": 18.05835,
    "elevation_ft": "",
    "continent": "EU",
    "iso_country": "PL",
    "iso_region": "PL-WP",
    "municipality": "",
    "scheduled_service": "no",
    "icao_code": "",
    "iata_code": "",
    "gps_code": "",
    "local_code": "",
    "home_link": "",
    "wikipedia_link": "",
    "keywords": ""
  },
  {
    "id": 345170,
    "ident": "PL-0182",
    "type": "small_airport",
    "name": "Czersk Świecki",
    "latitude_deg": 53.5779,
    "longitude_deg": 18.48456,
    "elevation_ft": "",
    "continent": "EU",
    "iso_country": "PL",
    "iso_region": "PL-KP",
    "municipality": "",
    "scheduled_service": "no",
    "icao_code": "",
    "iata_code": "",
    "gps_code": "",
    "local_code": "",
    "home_link": "",
    "wikipedia_link": "",
    "keywords": ""
  },
  {
    "id": 345272,
    "ident": "PL-0183",
    "type": "closed",
    "name": "Śniatowo Air Base",
    "latitude_deg": 53.87819,
    "longitude_deg": 14.86522,
    "elevation_ft": "",
    "continent": "EU",
    "iso_country": "PL",
    "iso_region": "PL-ZP",
    "municipality": "Śniatowo",
    "scheduled_service": "no",
    "icao_code": "",
    "iata_code": "",
    "gps_code": "",
    "local_code": "",
    "home_link": "",
    "wikipedia_link": "",
    "keywords": ""
  },
  {
    "id": 345393,
    "ident": "PL-0184",
    "type": "small_airport",
    "name": "Krośniewice Airstrip",
    "latitude_deg": 52.25552,
    "longitude_deg": 19.15125,
    "elevation_ft": "",
    "continent": "EU",
    "iso_country": "PL",
    "iso_region": "PL-LD",
    "municipality": "",
    "scheduled_service": "no",
    "icao_code": "",
    "iata_code": "",
    "gps_code": "",
    "local_code": "",
    "home_link": "",
    "wikipedia_link": "",
    "keywords": ""
  },
  {
    "id": 345462,
    "ident": "PL-0185",
    "type": "small_airport",
    "name": "Osieczna Airfield",
    "latitude_deg": 51.915884,
    "longitude_deg": 16.708585,
    "elevation_ft": "",
    "continent": "EU",
    "iso_country": "PL",
    "iso_region": "PL-WP",
    "municipality": "",
    "scheduled_service": "no",
    "icao_code": "",
    "iata_code": "",
    "gps_code": "",
    "local_code": "",
    "home_link": "",
    "wikipedia_link": "",
    "keywords": ""
  },
  {
    "id": 345464,
    "ident": "PL-0186",
    "type": "small_airport",
    "name": "Karminek Airfield",
    "latitude_deg": 51.82801,
    "longitude_deg": 17.6863,
    "elevation_ft": "",
    "continent": "EU",
    "iso_country": "PL",
    "iso_region": "PL-WP",
    "municipality": "",
    "scheduled_service": "no",
    "icao_code": "",
    "iata_code": "",
    "gps_code": "",
    "local_code": "",
    "home_link": "",
    "wikipedia_link": "",
    "keywords": ""
  },
  {
    "id": 345483,
    "ident": "PL-0187",
    "type": "small_airport",
    "name": "Przyborów Airfield",
    "latitude_deg": 51.800317,
    "longitude_deg": 15.802489,
    "elevation_ft": 220,
    "continent": "EU",
    "iso_country": "PL",
    "iso_region": "PL-LB",
    "municipality": "Nowa Sól",
    "scheduled_service": "no",
    "icao_code": "",
    "iata_code": "",
    "gps_code": "",
    "local_code": "",
    "home_link": "",
    "wikipedia_link": "",
    "keywords": "Nowa Sól"
  },
  {
    "id": 345587,
    "ident": "PL-0188",
    "type": "small_airport",
    "name": "Dębno Airstrip",
    "latitude_deg": 51.33468,
    "longitude_deg": 16.51771,
    "elevation_ft": 308,
    "continent": "EU",
    "iso_country": "PL",
    "iso_region": "PL-DS",
    "municipality": "Wołowa",
    "scheduled_service": "no",
    "icao_code": "",
    "iata_code": "",
    "gps_code": "",
    "local_code": "",
    "home_link": "",
    "wikipedia_link": "",
    "keywords": ""
  },
  {
    "id": 345588,
    "ident": "PL-0189",
    "type": "small_airport",
    "name": "Święta Katarzyna Airstrip",
    "latitude_deg": 51.01555,
    "longitude_deg": 17.10618,
    "elevation_ft": "",
    "continent": "EU",
    "iso_country": "PL",
    "iso_region": "PL-DS",
    "municipality": "",
    "scheduled_service": "no",
    "icao_code": "",
    "iata_code": "",
    "gps_code": "",
    "local_code": "",
    "home_link": "",
    "wikipedia_link": "",
    "keywords": ""
  },
  {
    "id": 345629,
    "ident": "PL-0190",
    "type": "small_airport",
    "name": "Wilków Średzki",
    "latitude_deg": 51.06434,
    "longitude_deg": 16.6979,
    "elevation_ft": "",
    "continent": "EU",
    "iso_country": "PL",
    "iso_region": "PL-DS",
    "municipality": "",
    "scheduled_service": "no",
    "icao_code": "",
    "iata_code": "",
    "gps_code": "",
    "local_code": "",
    "home_link": "",
    "wikipedia_link": "",
    "keywords": ""
  },
  {
    "id": 345632,
    "ident": "PL-0191",
    "type": "small_airport",
    "name": "Powodovo Airstrip",
    "latitude_deg": 52.117,
    "longitude_deg": 16.05,
    "elevation_ft": 197,
    "continent": "EU",
    "iso_country": "PL",
    "iso_region": "PL-WP",
    "municipality": "",
    "scheduled_service": "no",
    "icao_code": "",
    "iata_code": "",
    "gps_code": "",
    "local_code": "",
    "home_link": "",
    "wikipedia_link": "",
    "keywords": ""
  },
  {
    "id": 345634,
    "ident": "PL-0192",
    "type": "small_airport",
    "name": "Chalin 1 Airstrip",
    "latitude_deg": 52.586038,
    "longitude_deg": 16.034364,
    "elevation_ft": "",
    "continent": "EU",
    "iso_country": "PL",
    "iso_region": "PL-WP",
    "municipality": "",
    "scheduled_service": "no",
    "icao_code": "",
    "iata_code": "",
    "gps_code": "",
    "local_code": "",
    "home_link": "",
    "wikipedia_link": "",
    "keywords": ""
  },
  {
    "id": 345636,
    "ident": "PL-0193",
    "type": "small_airport",
    "name": "Krępsko Airfield",
    "latitude_deg": 53.25052,
    "longitude_deg": 16.75209,
    "elevation_ft": 243,
    "continent": "EU",
    "iso_country": "PL",
    "iso_region": "PL-WP",
    "municipality": "Krępsko",
    "scheduled_service": "no",
    "icao_code": "",
    "iata_code": "",
    "gps_code": "",
    "local_code": "",
    "home_link": "",
    "wikipedia_link": "",
    "keywords": "Lądowisko Krępsko"
  },
  {
    "id": 345686,
    "ident": "PL-0194",
    "type": "small_airport",
    "name": "Rawicz Airstrip",
    "latitude_deg": 51.61527,
    "longitude_deg": 16.90386,
    "elevation_ft": "",
    "continent": "EU",
    "iso_country": "PL",
    "iso_region": "PL-WP",
    "municipality": "",
    "scheduled_service": "no",
    "icao_code": "",
    "iata_code": "",
    "gps_code": "",
    "local_code": "",
    "home_link": "",
    "wikipedia_link": "",
    "keywords": ""
  },
  {
    "id": 345811,
    "ident": "PL-0195",
    "type": "small_airport",
    "name": "Księginki Airstrip",
    "latitude_deg": 51.95672,
    "longitude_deg": 17.07527,
    "elevation_ft": 334,
    "continent": "EU",
    "iso_country": "PL",
    "iso_region": "PL-WP",
    "municipality": "",
    "scheduled_service": "no",
    "icao_code": "",
    "iata_code": "",
    "gps_code": "",
    "local_code": "",
    "home_link": "",
    "wikipedia_link": "",
    "keywords": ""
  },
  {
    "id": 346101,
    "ident": "PL-0196",
    "type": "small_airport",
    "name": "Podgórze Airstrip",
    "latitude_deg": 51.34014,
    "longitude_deg": 16.28043,
    "elevation_ft": "",
    "continent": "EU",
    "iso_country": "PL",
    "iso_region": "PL-DS",
    "municipality": "",
    "scheduled_service": "no",
    "icao_code": "",
    "iata_code": "",
    "gps_code": "",
    "local_code": "",
    "home_link": "",
    "wikipedia_link": "",
    "keywords": ""
  },
  {
    "id": 346266,
    "ident": "PL-0197",
    "type": "small_airport",
    "name": "Bogatynia Airstrip",
    "latitude_deg": 50.93039,
    "longitude_deg": 14.97937,
    "elevation_ft": 1302,
    "continent": "EU",
    "iso_country": "PL",
    "iso_region": "PL-DS",
    "municipality": "Bogatynia",
    "scheduled_service": "no",
    "icao_code": "",
    "iata_code": "",
    "gps_code": "",
    "local_code": "",
    "home_link": "",
    "wikipedia_link": "",
    "keywords": ""
  },
  {
    "id": 346269,
    "ident": "PL-0198",
    "type": "small_airport",
    "name": "Niegowoniczki Airfield",
    "latitude_deg": 50.373651,
    "longitude_deg": 19.42111,
    "elevation_ft": "",
    "continent": "EU",
    "iso_country": "PL",
    "iso_region": "PL-SL",
    "municipality": "Niegowoniczki",
    "scheduled_service": "no",
    "icao_code": "",
    "iata_code": "",
    "gps_code": "",
    "local_code": "",
    "home_link": "",
    "wikipedia_link": "",
    "keywords": "Lądowisko Niegowoniczki"
  },
  {
    "id": 346291,
    "ident": "PL-0199",
    "type": "small_airport",
    "name": "Smolnik Altiport",
    "latitude_deg": 49.281514,
    "longitude_deg": 22.119274,
    "elevation_ft": "",
    "continent": "EU",
    "iso_country": "PL",
    "iso_region": "PL-PK",
    "municipality": "",
    "scheduled_service": "no",
    "icao_code": "",
    "iata_code": "",
    "gps_code": "",
    "local_code": "",
    "home_link": "http://www.smolnik.info.pl",
    "wikipedia_link": "",
    "keywords": ""
  },
  {
    "id": 346356,
    "ident": "PL-0200",
    "type": "small_airport",
    "name": "Konopiska Airstrip",
    "latitude_deg": 50.73958,
    "longitude_deg": 19.00814,
    "elevation_ft": "",
    "continent": "EU",
    "iso_country": "PL",
    "iso_region": "PL-SL",
    "municipality": "",
    "scheduled_service": "no",
    "icao_code": "",
    "iata_code": "",
    "gps_code": "",
    "local_code": "",
    "home_link": "",
    "wikipedia_link": "",
    "keywords": ""
  },